[
  {
    "code": "AAF",
    "icao": "KAAF",
    "name": "Apalachicola Regional",
    "latitude": 29.7302356,
    "longitude": -85.02964472072705,
    "elevation": 19,
    "url": null,
    "time_zone": "America/New_York",
    "city_code": "AAF",
    "country": "US",
    "city": "Apalachicola",
    "state": "Florida",
    "county": "Franklin County",
    "type": "AP"
  },
  {
    "code": "AAP",
    "icao": "WALS",
    "name": "Andrau Airpark",
    "latitude": 29.833332,
    "longitude": -95.666664,
    "elevation": 154,
    "url": "http://www.proyek.dishubprovkaltim.info/?pro=1",
    "time_zone": "America/Chicago",
    "city_code": "HOU",
    "country": "US",
    "city": null,
    "state": null,
    "county": null,
    "type": "AP"
  },
  {
    "code": "ABE",
    "icao": "KABE",
    "name": "Lehigh Valley International Airport",
    "latitude": 40.651163100000005,
    "longitude": -75.44225386838299,
    "elevation": 374,
    "url": null,
    "time_zone": "America/New_York",
    "city_code": "ABE",
    "country": "US",
    "city": "Catasauqua",
    "state": "Pennsylvania",
    "county": "Lehigh County",
    "type": "AP"
  },
  {
    "code": "ABI",
    "icao": "KABI",
    "name": "Abilene Regional Airport",
    "latitude": 32.407743749999995,
    "longitude": -99.67936992920886,
    "elevation": 1791,
    "url": null,
    "time_zone": "America/Chicago",
    "city_code": "ABI",
    "country": "US",
    "city": null,
    "state": null,
    "county": null,
    "type": "AP"
  },
  {
    "code": "ABL",
    "icao": "PAFM",
    "name": "Ambler Airport",
    "latitude": 67.1058333,
    "longitude": -157.8536111,
    "elevation": 190,
    "url": null,
    "time_zone": "America/Anchorage",
    "city_code": "ABL",
    "country": "US",
    "city": null,
    "state": null,
    "county": null,
    "type": "AP"
  },
  {
    "code": "ABQ",
    "icao": "KABQ",
    "name": "Albuquerque International Sunport",
    "latitude": 35.037669449999996,
    "longitude": -106.61096752176844,
    "elevation": 5308,
    "url": "http://www.abqsunport.com/",
    "time_zone": "America/Denver",
    "city_code": "ABQ",
    "country": "US",
    "city": "Albuquerque",
    "state": "New Mexico",
    "county": "Bernalillo County",
    "type": "AP"
  },
  {
    "code": "ABR",
    "icao": "KABR",
    "name": "Aberdeen Municipal Airport",
    "latitude": 45.4525,
    "longitude": -98.42611,
    "elevation": 1289,
    "url": null,
    "time_zone": "America/Chicago",
    "city_code": "ABR",
    "country": "US",
    "city": "Aberdeen",
    "state": "South Dakota",
    "county": "Brown County",
    "type": "AP"
  },
  {
    "code": "ABY",
    "icao": "KABY",
    "name": "Southwest Georgia Regional Airport",
    "latitude": 31.5339678,
    "longitude": -84.19254493414799,
    "elevation": 213,
    "url": null,
    "time_zone": "America/New_York",
    "city_code": "ABY",
    "country": "US",
    "city": null,
    "state": null,
    "county": null,
    "type": "AP"
  },
  {
    "code": "ACB",
    "icao": "KACB",
    "name": "Antrim County",
    "latitude": 44.98832545,
    "longitude": -85.19719629581977,
    "elevation": 659,
    "url": null,
    "time_zone": "America/Detroit",
    "city_code": "ACB",
    "country": "US",
    "city": "Bellaire",
    "state": "Michigan",
    "county": "Antrim County",
    "type": "AP"
  },
  {
    "code": "ACK",
    "icao": "KACK",
    "name": "Nantucket Memorial Airport",
    "latitude": 41.256350600000005,
    "longitude": -70.0642270361515,
    "elevation": 45,
    "url": null,
    "time_zone": "America/New_York",
    "city_code": "ACK",
    "country": "US",
    "city": "Nantucket",
    "state": "Massachusetts",
    "county": "Nantucket County",
    "type": "AP"
  },
  {
    "code": "ACT",
    "icao": "KACT",
    "name": "Waco Municipal Airport",
    "latitude": 31.609133,
    "longitude": -97.22321,
    "elevation": 498,
    "url": null,
    "time_zone": "America/Chicago",
    "city_code": "ACT",
    "country": "US",
    "city": "Gholson",
    "state": "Texas",
    "county": "McLennan County",
    "type": "AP"
  },
  {
    "code": "ACV",
    "icao": "KACV",
    "name": "Arcata-Eureka Airport",
    "latitude": 40.9763645,
    "longitude": -124.10842589937442,
    "elevation": 147,
    "url": null,
    "time_zone": "America/Los_Angeles",
    "city_code": "ACV",
    "country": "US",
    "city": "McKinleyville",
    "state": "California",
    "county": "Humboldt County",
    "type": "AP"
  },
  {
    "code": "ACY",
    "icao": "KACY",
    "name": "Atlantic City International Airport",
    "latitude": 39.45708535,
    "longitude": -74.57027649092205,
    "elevation": 55,
    "url": "https://www.sjta.com/acairport/",
    "time_zone": "America/New_York",
    "city_code": "AIY",
    "country": "US",
    "city": "Pomona",
    "state": "New Jersey",
    "county": "Atlantic County",
    "type": "AP"
  },
  {
    "code": "ADG",
    "icao": "KADG",
    "name": "Lenawee County",
    "latitude": 41.9,
    "longitude": -84.03333,
    "elevation": 800,
    "url": null,
    "time_zone": "America/Detroit",
    "city_code": "ADG",
    "country": "US",
    "city": "Adrian",
    "state": "Michigan",
    "county": "Lenawee County",
    "type": "AP"
  },
  {
    "code": "ADK",
    "icao": "PADK",
    "name": "Adak Island Ns",
    "latitude": 51.88278,
    "longitude": -176.64473,
    "elevation": 29,
    "url": null,
    "time_zone": "America/Adak",
    "city_code": "ADK",
    "country": "US",
    "city": null,
    "state": null,
    "county": null,
    "type": "AP"
  },
  {
    "code": "ADM",
    "icao": "KADM",
    "name": "Ardmore Municipal Airport",
    "latitude": 34.3028,
    "longitude": -97.0192,
    "elevation": 711,
    "url": null,
    "time_zone": "America/Chicago",
    "city_code": "ADM",
    "country": "US",
    "city": "Dickson",
    "state": "Oklahoma",
    "county": "Carter County",
    "type": "AP"
  },
  {
    "code": "ADQ",
    "icao": "PADQ",
    "name": "Kodiak Benny Benson State Airport",
    "latitude": 57.755276,
    "longitude": -152.51297,
    "elevation": 45,
    "url": null,
    "time_zone": "America/Anchorage",
    "city_code": "ADQ",
    "country": "US",
    "city": null,
    "state": null,
    "county": null,
    "type": "AP"
  },
  {
    "code": "ADR",
    "icao": "KPHH",
    "name": "Andrews",
    "latitude": 33.45,
    "longitude": -79.566666,
    "elevation": 42,
    "url": null,
    "time_zone": "America/New_York",
    "city_code": "ADR",
    "country": "US",
    "city": "Andrews",
    "state": "South Carolina",
    "county": "Williamsburg County",
    "type": "AP"
  },
  {
    "code": "ADS",
    "icao": "KADS",
    "name": "Addison Airport",
    "latitude": 32.783333,
    "longitude": -97.3,
    "elevation": 521,
    "url": null,
    "time_zone": "America/Chicago",
    "city_code": "DFW",
    "country": "US",
    "city": "Haltom City",
    "state": "Texas",
    "county": "Tarrant County",
    "type": "AP"
  },
  {
    "code": "ADT",
    "icao": "KADH",
    "name": "Ada Municipal",
    "latitude": 34.80490015,
    "longitude": -96.66761600367232,
    "elevation": 977,
    "url": null,
    "time_zone": "America/Chicago",
    "city_code": "ADT",
    "country": "US",
    "city": "Ada",
    "state": "Oklahoma",
    "county": "Pontotoc County",
    "type": "AP"
  },
  {
    "code": "ADW",
    "icao": "KADW",
    "name": "Andrews AFB",
    "latitude": 38.8057469,
    "longitude": -76.87741646487015,
    "elevation": 255,
    "url": "http://www.jba.af.mil/",
    "time_zone": "America/New_York",
    "city_code": "ADW",
    "country": "US",
    "city": "Andrews AFB",
    "state": "Maryland",
    "county": "Prince George's County",
    "type": "AP"
  },
  {
    "code": "AED",
    "icao": null,
    "name": "Aleneva",
    "latitude": 58.033333,
    "longitude": -152.9,
    "elevation": 1099,
    "url": null,
    "time_zone": "America/Anchorage",
    "city_code": "AED",
    "country": "US",
    "city": null,
    "state": null,
    "county": null,
    "type": "AP"
  },
  {
    "code": "AEL",
    "icao": "KAEL",
    "name": "Albert Lea",
    "latitude": 43.6800949,
    "longitude": -93.36737639309429,
    "elevation": 1250,
    "url": null,
    "time_zone": "America/Chicago",
    "city_code": "AEL",
    "country": "US",
    "city": "Albert Lea",
    "state": "Minnesota",
    "county": "Freeborn County",
    "type": "AP"
  },
  {
    "code": "AET",
    "icao": "PFAL",
    "name": "Allakaket",
    "latitude": 66.55193399999999,
    "longitude": -152.62144819086524,
    "elevation": 439,
    "url": null,
    "time_zone": "America/Anchorage",
    "city_code": "AET",
    "country": "US",
    "city": null,
    "state": null,
    "county": null,
    "type": "AP"
  },
  {
    "code": "AEX",
    "icao": "KAEX",
    "name": "Alexandria International Airport",
    "latitude": 31.329273649999998,
    "longitude": -92.54095486627727,
    "elevation": 65,
    "url": null,
    "time_zone": "America/Chicago",
    "city_code": "AEX",
    "country": "US",
    "city": "Alexandria",
    "state": "Louisiana",
    "county": "Rapides Parish",
    "type": "AP"
  },
  {
    "code": "AFF",
    "icao": "KAFF",
    "name": "USAF Academy Airstrip",
    "latitude": 38.833332,
    "longitude": -104.7,
    "elevation": 6266,
    "url": null,
    "time_zone": "America/Denver",
    "city_code": "COS",
    "country": "US",
    "city": "Cimarron Hills",
    "state": "Colorado",
    "county": "El Paso County",
    "type": "AP"
  },
  {
    "code": "AFN",
    "icao": "KAFN",
    "name": "Municipal",
    "latitude": 42.833332,
    "longitude": -72.066666,
    "elevation": 1122,
    "url": "http://silverranchairpark.com/",
    "time_zone": "America/New_York",
    "city_code": "AFN",
    "country": "US",
    "city": "Jaffrey",
    "state": "New Hampshire",
    "county": "Cheshire County",
    "type": "AP"
  },
  {
    "code": "AFO",
    "icao": "KAFO",
    "name": "Municipal",
    "latitude": 42.733334,
    "longitude": -110.933334,
    "elevation": 6230,
    "url": "http://www.aftonairpark.com/",
    "time_zone": "America/Denver",
    "city_code": "AFO",
    "country": "US",
    "city": "Afton",
    "state": "Wyoming",
    "county": "Lincoln County",
    "type": "AP"
  },
  {
    "code": "AFW",
    "icao": "KAFW",
    "name": "Fort Worth Alliance Airport",
    "latitude": 32.992997849999995,
    "longitude": -97.31836461280574,
    "elevation": 643,
    "url": "http://www.allianceairport.com/",
    "time_zone": "America/Chicago",
    "city_code": "DFW",
    "country": "US",
    "city": "Haslet",
    "state": "Texas",
    "county": "Tarrant County",
    "type": "AP"
  },
  {
    "code": "AGC",
    "icao": "KAGC",
    "name": "Allegheny County Airport",
    "latitude": 40.3534454,
    "longitude": -79.92904654320128,
    "elevation": 1250,
    "url": null,
    "time_zone": "America/New_York",
    "city_code": "PIT",
    "country": "US",
    "city": "Pleasant Hills",
    "state": "Pennsylvania",
    "county": "Allegheny County",
    "type": "AP"
  },
  {
    "code": "AGN",
    "icao": "PAGN",
    "name": "Angoon",
    "latitude": 57.503887,
    "longitude": -134.58333,
    "elevation": 0,
    "url": null,
    "time_zone": "America/Juneau",
    "city_code": "AGN",
    "country": "US",
    "city": null,
    "state": null,
    "county": null,
    "type": "AP"
  },
  {
    "code": "AGO",
    "icao": "KAGO",
    "name": "Municipal",
    "latitude": 33.266666,
    "longitude": -93.23333,
    "elevation": 314,
    "url": null,
    "time_zone": "America/Chicago",
    "city_code": "AGO",
    "country": "US",
    "city": "Magnolia",
    "state": "Arkansas",
    "county": "Columbia County",
    "type": "AP"
  },
  {
    "code": "AGS",
    "icao": "KAGS",
    "name": "Augusta Regional Airport",
    "latitude": 33.37230205,
    "longitude": -81.9650639098103,
    "elevation": 101,
    "url": null,
    "time_zone": "America/New_York",
    "city_code": "AGS",
    "country": "US",
    "city": null,
    "state": null,
    "county": null,
    "type": "AP"
  },
  {
    "code": "AHC",
    "icao": "KAHC",
    "name": "Amedee AAF",
    "latitude": 40.15,
    "longitude": -120.13333,
    "elevation": 4055,
    "url": null,
    "time_zone": "America/Los_Angeles",
    "city_code": "AHC",
    "country": "US",
    "city": "Janesville",
    "state": "California",
    "county": "Lassen County",
    "type": "AP"
  },
  {
    "code": "AHD",
    "icao": null,
    "name": "Downtown",
    "latitude": 34.166668,
    "longitude": -97.13333,
    "elevation": 902,
    "url": null,
    "time_zone": "America/Chicago",
    "city_code": "ADM",
    "country": "US",
    "city": "Ardmore",
    "state": "Oklahoma",
    "county": "Carter County",
    "type": "AP"
  },
  {
    "code": "AHF",
    "icao": null,
    "name": "Municipal",
    "latitude": 40.3,
    "longitude": -99.9,
    "elevation": 2152,
    "url": null,
    "time_zone": "America/Chicago",
    "city_code": "AHF",
    "country": "US",
    "city": "Arapahoe",
    "state": "Nebraska",
    "county": "Furnas County",
    "type": "AP"
  },
  {
    "code": "AHH",
    "icao": "KAHH",
    "name": "Municipal",
    "latitude": 45.3,
    "longitude": -92.35,
    "elevation": 1089,
    "url": null,
    "time_zone": "America/Chicago",
    "city_code": "AHH",
    "country": "US",
    "city": "Amery",
    "state": "Wisconsin",
    "county": "Polk County",
    "type": "AP"
  },
  {
    "code": "AHM",
    "icao": "KS03",
    "name": "Sumner Parker Field",
    "latitude": 42.19029999,
    "longitude": -122.6610031,
    "elevation": 1827,
    "url": null,
    "time_zone": "America/Los_Angeles",
    "city_code": "AHM",
    "country": "US",
    "city": "Ashland",
    "state": "Oregon",
    "county": "Jackson County",
    "type": "AP"
  },
  {
    "code": "AHN",
    "icao": "KAHN",
    "name": "Athens-Ben Epps",
    "latitude": 33.9487053,
    "longitude": -83.32973997812988,
    "elevation": 767,
    "url": null,
    "time_zone": "America/New_York",
    "city_code": "AHN",
    "country": "US",
    "city": "Winterville",
    "state": "Georgia",
    "county": "Clarke County",
    "type": "AP"
  },
  {
    "code": "AIA",
    "icao": "KAIA",
    "name": "Alliance Airport",
    "latitude": 42.051666,
    "longitude": -102.80666,
    "elevation": 3904,
    "url": null,
    "time_zone": "America/Denver",
    "city_code": "AIA",
    "country": "US",
    "city": "Alliance",
    "state": "Nebraska",
    "county": "Box Butte County",
    "type": "AP"
  },
  {
    "code": "AID",
    "icao": "KAID",
    "name": "Municipal",
    "latitude": 40.166668,
    "longitude": -85.683334,
    "elevation": 882,
    "url": null,
    "time_zone": "America/Indiana/Indianapolis",
    "city_code": "AID",
    "country": "US",
    "city": "Anderson",
    "state": "Indiana",
    "county": "Madison County",
    "type": "AP"
  },
  {
    "code": "AIK",
    "icao": "KAIK",
    "name": "Municipal",
    "latitude": 33.566666,
    "longitude": -81.71667,
    "elevation": 580,
    "url": null,
    "time_zone": "America/New_York",
    "city_code": "AIK",
    "country": "US",
    "city": "Aiken",
    "state": "South Carolina",
    "county": "Aiken County",
    "type": "AP"
  },
  {
    "code": "AIN",
    "icao": "PAWI",
    "name": "Wainwright",
    "latitude": 70.63790295000001,
    "longitude": -160.0150279490063,
    "elevation": 22,
    "url": null,
    "time_zone": "America/Anchorage",
    "city_code": "AIN",
    "country": "US",
    "city": null,
    "state": null,
    "county": null,
    "type": "AP"
  },
  {
    "code": "AIO",
    "icao": "KAIO",
    "name": "Municipal",
    "latitude": 41.4,
    "longitude": -95.01667,
    "elevation": 1250,
    "url": null,
    "time_zone": "America/Chicago",
    "city_code": "AIO",
    "country": "US",
    "city": "Atlantic",
    "state": "Iowa",
    "county": "Cass County",
    "type": "AP"
  },
  {
    "code": "AIV",
    "icao": "KAIV",
    "name": "George Downer",
    "latitude": 33.13333,
    "longitude": -88.15,
    "elevation": 269,
    "url": null,
    "time_zone": "America/Chicago",
    "city_code": "AIV",
    "country": "US",
    "city": "Aliceville",
    "state": "Alabama",
    "county": "Pickens County",
    "type": "AP"
  },
  {
    "code": "AIY",
    "icao": null,
    "name": "Bader Field",
    "latitude": 39.3859082,
    "longitude": -74.4254622,
    "elevation": -3,
    "url": null,
    "time_zone": "America/New_York",
    "city_code": "AIY",
    "country": "US",
    "city": null,
    "state": null,
    "county": null,
    "type": "AP"
  },
  {
    "code": "AIZ",
    "icao": "KAIZ",
    "name": "Lee C Fine Memorial",
    "latitude": 38.0924572,
    "longitude": -92.55351790002943,
    "elevation": 889,
    "url": null,
    "time_zone": "America/Chicago",
    "city_code": "AIZ",
    "country": "US",
    "city": null,
    "state": null,
    "county": null,
    "type": "AP"
  },
  {
    "code": "AKB",
    "icao": "PAAK",
    "name": "Atka",
    "latitude": 52.222215250000005,
    "longitude": -174.2066819239687,
    "elevation": 29,
    "url": null,
    "time_zone": "America/Adak",
    "city_code": "AKB",
    "country": "US",
    "city": null,
    "state": null,
    "county": null,
    "type": "AP"
  },
  {
    "code": "AKC",
    "icao": "KAKR",
    "name": "Fulton International",
    "latitude": 41.04,
    "longitude": -81.46778,
    "elevation": 1010,
    "url": null,
    "time_zone": "America/New_York",
    "city_code": "CAK",
    "country": "US",
    "city": "Sawyerwood",
    "state": "Ohio",
    "county": "Summit County",
    "type": "AP"
  },
  {
    "code": "AKI",
    "icao": "PFAK",
    "name": "Akiak",
    "latitude": 60.9052437,
    "longitude": -161.2268225,
    "elevation": 62,
    "url": null,
    "time_zone": "America/Anchorage",
    "city_code": "AKI",
    "country": "US",
    "city": null,
    "state": null,
    "county": null,
    "type": "AP"
  },
  {
    "code": "AKK",
    "icao": "PAKH",
    "name": "Akhiok SPB",
    "latitude": 56.944443,
    "longitude": -154.16667,
    "elevation": 0,
    "url": null,
    "time_zone": "America/Anchorage",
    "city_code": "AKK",
    "country": "US",
    "city": null,
    "state": null,
    "county": null,
    "type": "AP"
  },
  {
    "code": "AKN",
    "icao": "PAKN",
    "name": "King Salmon Airport",
    "latitude": 58.6753166,
    "longitude": -156.6493870251819,
    "elevation": 26,
    "url": null,
    "time_zone": "America/Anchorage",
    "city_code": "AKN",
    "country": "US",
    "city": null,
    "state": null,
    "county": null,
    "type": "AP"
  },
  {
    "code": "AKO",
    "icao": "KAKO",
    "name": "Colorado Plains Regional Airport",
    "latitude": 40.17740845,
    "longitude": -103.22743550494955,
    "elevation": 4655,
    "url": "http://www.co.washington.co.us/airport.htm",
    "time_zone": "America/Denver",
    "city_code": "AKO",
    "country": "US",
    "city": "Akron",
    "state": "Colorado",
    "county": "Washington County",
    "type": "AP"
  },
  {
    "code": "AKP",
    "icao": "PAKP",
    "name": "Anaktuvuk",
    "latitude": 68.13254385,
    "longitude": -151.7456225471328,
    "elevation": 2335,
    "url": null,
    "time_zone": "America/Anchorage",
    "city_code": "AKP",
    "country": "US",
    "city": null,
    "state": null,
    "county": null,
    "type": "AP"
  },
  {
    "code": "ALB",
    "icao": "KALB",
    "name": "Albany International Airport",
    "latitude": 42.7457516,
    "longitude": -73.8092091,
    "elevation": 301,
    "url": "http://www.albanyairport.com/",
    "time_zone": "America/New_York",
    "city_code": "ALB",
    "country": "US",
    "city": "Colonie",
    "state": "New York",
    "county": "Albany County",
    "type": "AP"
  },
  {
    "code": "ALE",
    "icao": null,
    "name": "Alpine",
    "latitude": 30.416668,
    "longitude": -103.75,
    "elevation": 5055,
    "url": "http://www.ci.alpine.tx.us/airport.shtml",
    "time_zone": "America/Chicago",
    "city_code": "ALE",
    "country": "US",
    "city": "Alpine",
    "state": "Texas",
    "county": "Brewster County",
    "type": "AP"
  },
  {
    "code": "ALI",
    "icao": "KALI",
    "name": "International",
    "latitude": 27.75,
    "longitude": -98.066666,
    "elevation": 193,
    "url": null,
    "time_zone": "America/Chicago",
    "city_code": "ALI",
    "country": "US",
    "city": "Alice",
    "state": "Texas",
    "county": "Jim Wells County",
    "type": "AP"
  },
  {
    "code": "ALM",
    "icao": "KALM",
    "name": "Municipal",
    "latitude": 32.845833,
    "longitude": -105.985275,
    "elevation": 4206,
    "url": null,
    "time_zone": "America/Denver",
    "city_code": "ALM",
    "country": "US",
    "city": "Boles Acres",
    "state": "New Mexico",
    "county": "Otero County",
    "type": "AP"
  },
  {
    "code": "ALN",
    "icao": "KALN",
    "name": "Alton",
    "latitude": 38.891666,
    "longitude": -90.04833,
    "elevation": 515,
    "url": null,
    "time_zone": "America/Chicago",
    "city_code": "ALN",
    "country": "US",
    "city": "Bethalto",
    "state": "Illinois",
    "county": "Madison County",
    "type": "AP"
  },
  {
    "code": "ALO",
    "icao": "KALO",
    "name": "Waterloo Airport",
    "latitude": 42.55611,
    "longitude": -92.39972,
    "elevation": 872,
    "url": null,
    "time_zone": "America/Chicago",
    "city_code": "ALO",
    "country": "US",
    "city": "Cedar Falls",
    "state": "Iowa",
    "county": "Black Hawk County",
    "type": "AP"
  },
  {
    "code": "ALS",
    "icao": "KALS",
    "name": "Alamosa Municipal Airport",
    "latitude": 37.43667,
    "longitude": -105.86667,
    "elevation": 7519,
    "url": "https://www.sanluisvalleyairport.org/",
    "time_zone": "America/Denver",
    "city_code": "ALS",
    "country": "US",
    "city": "Alamosa",
    "state": "Colorado",
    "county": "Alamosa County",
    "type": "AP"
  },
  {
    "code": "ALW",
    "icao": "KALW",
    "name": "Walla Walla Airport",
    "latitude": 46.094085699999994,
    "longitude": -118.29114232396819,
    "elevation": 1138,
    "url": null,
    "time_zone": "America/Los_Angeles",
    "city_code": "ALW",
    "country": "US",
    "city": "Walla Walla East",
    "state": "Washington",
    "county": "Walla Walla County",
    "type": "AP"
  },
  {
    "code": "ALX",
    "icao": "KALX",
    "name": "Thomas C Russell Field",
    "latitude": 32.91343435,
    "longitude": -85.96246743466183,
    "elevation": 367,
    "url": null,
    "time_zone": "America/Chicago",
    "city_code": "ALX",
    "country": "US",
    "city": "Alexander City",
    "state": "Alabama",
    "county": "Tallapoosa County",
    "type": "AP"
  },
  {
    "code": "ALZ",
    "icao": null,
    "name": "Alitak SPB",
    "latitude": 56.895832,
    "longitude": -154.24583,
    "elevation": 0,
    "url": null,
    "time_zone": "America/Anchorage",
    "city_code": "ALZ",
    "country": "US",
    "city": null,
    "state": null,
    "county": null,
    "type": "AP"
  },
  {
    "code": "AMA",
    "icao": "KAMA",
    "name": "Rick Husband Amarillo International Airport",
    "latitude": 35.219594150000006,
    "longitude": -101.70183038894899,
    "elevation": 3605,
    "url": "http://airport.amarillo.gov/",
    "time_zone": "America/Chicago",
    "city_code": "AMA",
    "country": "US",
    "city": null,
    "state": null,
    "county": null,
    "type": "AP"
  },
  {
    "code": "AMK",
    "icao": null,
    "name": "Animas Airpark",
    "latitude": 37.15,
    "longitude": -107.75,
    "elevation": 6637,
    "url": "http://www.websmart66.net/cgi-bin/p/w66p-airportinfo.cgi?d=greggs-flying-service",
    "time_zone": "America/Denver",
    "city_code": "DRO",
    "country": "US",
    "city": null,
    "state": null,
    "county": null,
    "type": "AP"
  },
  {
    "code": "AMN",
    "icao": "KAMN",
    "name": "Gratiot Community",
    "latitude": 43.38333,
    "longitude": -84.65,
    "elevation": 751,
    "url": "http://www.ci.alma.mi.us/1/307/airport.asp",
    "time_zone": "America/Detroit",
    "city_code": "AMN",
    "country": "US",
    "city": "Alma",
    "state": "Michigan",
    "county": "Gratiot County",
    "type": "AP"
  },
  {
    "code": "AMW",
    "icao": "KAMW",
    "name": "Ames",
    "latitude": 41.9903107,
    "longitude": -93.62215445364684,
    "elevation": 908,
    "url": null,
    "time_zone": "America/Chicago",
    "city_code": "AMW",
    "country": "US",
    "city": "Ames",
    "state": "Iowa",
    "county": "Story County",
    "type": "AP"
  },
  {
    "code": "ANA",
    "icao": "HKOM",
    "name": "John Wayne International",
    "latitude": 33.816666,
    "longitude": -117.933334,
    "elevation": 121,
    "url": null,
    "time_zone": "America/Los_Angeles",
    "city_code": "ANA",
    "country": "US",
    "city": "Anaheim",
    "state": "California",
    "county": "Orange County",
    "type": "AP"
  },
  {
    "code": "ANB",
    "icao": "KANB",
    "name": "Anniston Metropolitan",
    "latitude": 33.59028,
    "longitude": -85.855835,
    "elevation": 626,
    "url": null,
    "time_zone": "America/Chicago",
    "city_code": "ANB",
    "country": "US",
    "city": "Oxford",
    "state": "Alabama",
    "county": "Calhoun County",
    "type": "AP"
  },
  {
    "code": "ANC",
    "icao": "PANC",
    "name": "Ted Stevens Anchorage International Airport",
    "latitude": 61.18103525,
    "longitude": -149.99789189730433,
    "elevation": 62,
    "url": null,
    "time_zone": "America/Anchorage",
    "city_code": "ANC",
    "country": "US",
    "city": null,
    "state": null,
    "county": null,
    "type": "AP"
  },
  {
    "code": "AND",
    "icao": "KAND",
    "name": "Anderson",
    "latitude": 34.49361,
    "longitude": -82.71,
    "elevation": 728,
    "url": null,
    "time_zone": "America/New_York",
    "city_code": "AND",
    "country": "US",
    "city": "Centerville",
    "state": "South Carolina",
    "county": "Anderson County",
    "type": "AP"
  },
  {
    "code": "ANI",
    "icao": "PANI",
    "name": "Aniak Airport",
    "latitude": 61.5813889,
    "longitude": -159.5427778,
    "elevation": 49,
    "url": null,
    "time_zone": "America/Anchorage",
    "city_code": "ANI",
    "country": "US",
    "city": null,
    "state": null,
    "county": null,
    "type": "AP"
  },
  {
    "code": "ANN",
    "icao": "PANT",
    "name": "Annette Island",
    "latitude": 55.0415764,
    "longitude": -131.5646264739308,
    "elevation": 78,
    "url": null,
    "time_zone": "America/Metlakatla",
    "city_code": "ANN",
    "country": "US",
    "city": null,
    "state": null,
    "county": null,
    "type": "AP"
  },
  {
    "code": "ANP",
    "icao": "KANP",
    "name": "Lee",
    "latitude": 38.983334,
    "longitude": -76.5,
    "elevation": 29,
    "url": null,
    "time_zone": "America/New_York",
    "city_code": "ANP",
    "country": "US",
    "city": "Annapolis",
    "state": "Maryland",
    "county": "Anne Arundel County",
    "type": "AP"
  },
  {
    "code": "ANQ",
    "icao": "KANQ",
    "name": "Tri-State Steuben County",
    "latitude": 41.63333,
    "longitude": -85,
    "elevation": 1053,
    "url": null,
    "time_zone": "America/Indiana/Indianapolis",
    "city_code": "ANQ",
    "country": "US",
    "city": "Angola",
    "state": "Indiana",
    "county": "Steuben County",
    "type": "AP"
  },
  {
    "code": "ANV",
    "icao": "PANV",
    "name": "Anvik Airport",
    "latitude": 62.6451092,
    "longitude": -160.1932999,
    "elevation": 265,
    "url": null,
    "time_zone": "America/Anchorage",
    "city_code": "ANV",
    "country": "US",
    "city": null,
    "state": null,
    "county": null,
    "type": "AP"
  },
  {
    "code": "ANW",
    "icao": "KANW",
    "name": "Ainsworth",
    "latitude": 42.55,
    "longitude": -99.86667,
    "elevation": 2513,
    "url": null,
    "time_zone": "America/Chicago",
    "city_code": "ANW",
    "country": "US",
    "city": "Ainsworth",
    "state": "Nebraska",
    "county": "Brown County",
    "type": "AP"
  },
  {
    "code": "ANY",
    "icao": "KANY",
    "name": "Anthony",
    "latitude": 37.15,
    "longitude": -98.03333,
    "elevation": 1335,
    "url": null,
    "time_zone": "America/Chicago",
    "city_code": "ANY",
    "country": "US",
    "city": "Anthony",
    "state": "Kansas",
    "county": "Harper County",
    "type": "AP"
  },
  {
    "code": "AOH",
    "icao": "KAOH",
    "name": "Allen County",
    "latitude": 40.766666,
    "longitude": -84.1,
    "elevation": 879,
    "url": null,
    "time_zone": "America/New_York",
    "city_code": "AOH",
    "country": "US",
    "city": "Lima",
    "state": "Ohio",
    "county": "Allen County",
    "type": "AP"
  },
  {
    "code": "AOO",
    "icao": "KAOO",
    "name": "Altoona Airport",
    "latitude": 40.29686675,
    "longitude": -78.32117438468744,
    "elevation": 1469,
    "url": null,
    "time_zone": "America/New_York",
    "city_code": "AOO",
    "country": "US",
    "city": "Martinsburg",
    "state": "Pennsylvania",
    "county": "Blair County",
    "type": "AP"
  },
  {
    "code": "AOS",
    "icao": "AK81",
    "name": "Amook",
    "latitude": 57.4705133,
    "longitude": -153.8166725,
    "elevation": 9,
    "url": null,
    "time_zone": "America/Anchorage",
    "city_code": "AOS",
    "country": "US",
    "city": null,
    "state": null,
    "county": null,
    "type": "AP"
  },
  {
    "code": "APA",
    "icao": "KAPA",
    "name": "Centennial Airport",
    "latitude": 39.733334,
    "longitude": -104.98333,
    "elevation": 5285,
    "url": null,
    "time_zone": "America/Denver",
    "city_code": "DEN",
    "country": "US",
    "city": null,
    "state": null,
    "county": null,
    "type": "AP"
  },
  {
    "code": "APC",
    "icao": "KAPC",
    "name": "Napa County",
    "latitude": 38.216488,
    "longitude": -122.27657132954653,
    "elevation": 32,
    "url": "http://www.napacountyairport.org/",
    "time_zone": "America/Los_Angeles",
    "city_code": "APC",
    "country": "US",
    "city": "American Canyon",
    "state": "California",
    "county": "Napa County",
    "type": "AP"
  },
  {
    "code": "APF",
    "icao": "KAPF",
    "name": "Naples Municipal Airport",
    "latitude": 26.1523225,
    "longitude": -81.773941382464,
    "elevation": 29,
    "url": null,
    "time_zone": "America/New_York",
    "city_code": "APF",
    "country": "US",
    "city": "Naples",
    "state": "Florida",
    "county": "Collier County",
    "type": "AP"
  },
  {
    "code": "APG",
    "icao": "KAPG",
    "name": "Phillips AAF",
    "latitude": 39.5,
    "longitude": -76.166664,
    "elevation": 72,
    "url": null,
    "time_zone": "America/New_York",
    "city_code": "APG",
    "country": "US",
    "city": "Aberdeen",
    "state": "Maryland",
    "county": "Harford County",
    "type": "AP"
  },
  {
    "code": "APH",
    "icao": "KAPH",
    "name": "Camp A P Hill",
    "latitude": 38.05,
    "longitude": -77.35,
    "elevation": 173,
    "url": null,
    "time_zone": "America/New_York",
    "city_code": "APH",
    "country": "US",
    "city": "Bowling Green",
    "state": "Virginia",
    "county": "Caroline County",
    "type": "AP"
  },
  {
    "code": "APN",
    "icao": "KAPN",
    "name": "Alpena County Regional Airport",
    "latitude": 45.07017615,
    "longitude": -83.5665547651746,
    "elevation": 708,
    "url": null,
    "time_zone": "America/Detroit",
    "city_code": "APN",
    "country": "US",
    "city": "Alpena",
    "state": "Michigan",
    "county": "Alpena County",
    "type": "AP"
  },
  {
    "code": "APT",
    "icao": "KAPT",
    "name": "Marion County",
    "latitude": 35.066666,
    "longitude": -85.5,
    "elevation": 1637,
    "url": null,
    "time_zone": "America/Chicago",
    "city_code": "APT",
    "country": "US",
    "city": "Powells Crossroads",
    "state": "Tennessee",
    "county": "Marion County",
    "type": "AP"
  },
  {
    "code": "APV",
    "icao": "KAPV",
    "name": "Apple Valley",
    "latitude": 34.52639,
    "longitude": -117.212776,
    "elevation": 2910,
    "url": null,
    "time_zone": "America/Los_Angeles",
    "city_code": "APV",
    "country": "US",
    "city": "Apple Valley",
    "state": "California",
    "county": "San Bernardino County",
    "type": "AP"
  },
  {
    "code": "AQY",
    "icao": null,
    "name": "Alyeska",
    "latitude": 60.9659745,
    "longitude": -149.1234394,
    "elevation": 118,
    "url": null,
    "time_zone": "America/Anchorage",
    "city_code": "AQY",
    "country": "US",
    "city": null,
    "state": null,
    "county": null,
    "type": "AP"
  },
  {
    "code": "ARA",
    "icao": "KARA",
    "name": "Acadiana Regional",
    "latitude": 30.033018249999998,
    "longitude": -91.88190742881199,
    "elevation": 26,
    "url": "http://www.flyiberiaparish.com/",
    "time_zone": "America/Chicago",
    "city_code": "ARA",
    "country": "US",
    "city": "Cade",
    "state": "Louisiana",
    "county": "Saint Martin Parish",
    "type": "AP"
  },
  {
    "code": "ARB",
    "icao": "KARB",
    "name": "Municipal",
    "latitude": 42.3,
    "longitude": -83.75,
    "elevation": 905,
    "url": null,
    "time_zone": "America/Detroit",
    "city_code": "ARB",
    "country": "US",
    "city": "Ann Arbor",
    "state": "Michigan",
    "county": "Washtenaw County",
    "type": "AP"
  },
  {
    "code": "ARC",
    "icao": "PARC",
    "name": "Arctic Village",
    "latitude": 68.1156573,
    "longitude": -145.575639,
    "elevation": 2303,
    "url": null,
    "time_zone": "America/Anchorage",
    "city_code": "ARC",
    "country": "US",
    "city": null,
    "state": null,
    "county": null,
    "type": "AP"
  },
  {
    "code": "ARG",
    "icao": "KARG",
    "name": "Walnut Ridge",
    "latitude": 36.066666,
    "longitude": -90.95,
    "elevation": 249,
    "url": "http://walnutridgeairport.com/",
    "time_zone": "America/Chicago",
    "city_code": "ARG",
    "country": "US",
    "city": "Walnut Ridge",
    "state": "Arkansas",
    "county": "Lawrence County",
    "type": "AP"
  },
  {
    "code": "ART",
    "icao": "KART",
    "name": "Watertown Airport",
    "latitude": 43.990833,
    "longitude": -76.021385,
    "elevation": 275,
    "url": null,
    "time_zone": "America/New_York",
    "city_code": "ART",
    "country": "US",
    "city": "Dexter",
    "state": "New York",
    "county": "Jefferson County",
    "type": "AP"
  },
  {
    "code": "ARV",
    "icao": "KARV",
    "name": "Noble F. Lee",
    "latitude": 45.924168,
    "longitude": -89.73222,
    "elevation": 1614,
    "url": null,
    "time_zone": "America/Chicago",
    "city_code": "ARV",
    "country": "US",
    "city": "Lac du Flambeau",
    "state": "Wisconsin",
    "county": "Vilas County",
    "type": "AP"
  },
  {
    "code": "ARX",
    "icao": "SBAC",
    "name": "Asbury Park",
    "latitude": 40.216667,
    "longitude": -74.1,
    "elevation": 88,
    "url": null,
    "time_zone": "America/New_York",
    "city_code": "ARX",
    "country": "US",
    "city": "Shark River Hills",
    "state": "New Jersey",
    "county": "Monmouth County",
    "type": "AP"
  },
  {
    "code": "ASE",
    "icao": "KASE",
    "name": "Aspen Airport",
    "latitude": 39.219685,
    "longitude": -106.864685,
    "elevation": 7762,
    "url": "http://aspenairport.com/",
    "time_zone": "America/Denver",
    "city_code": "ASE",
    "country": "US",
    "city": "Aspen",
    "state": "Colorado",
    "county": "Pitkin County",
    "type": "AP"
  },
  {
    "code": "ASH",
    "icao": "KASH",
    "name": "Boire Field",
    "latitude": 42.78259315,
    "longitude": -71.51763052967607,
    "elevation": 160,
    "url": null,
    "time_zone": "America/New_York",
    "city_code": "ASH",
    "country": "US",
    "city": "Nashua",
    "state": "New Hampshire",
    "county": "Hillsborough County",
    "type": "AP"
  },
  {
    "code": "ASL",
    "icao": "KASL",
    "name": "Harrison County",
    "latitude": 32.55,
    "longitude": -94.38333,
    "elevation": 469,
    "url": null,
    "time_zone": "America/Chicago",
    "city_code": "ASL",
    "country": "US",
    "city": "Marshall",
    "state": "Texas",
    "county": "Harrison County",
    "type": "AP"
  },
  {
    "code": "ASN",
    "icao": "KASN",
    "name": "Talladega",
    "latitude": 33.433334,
    "longitude": -86.1,
    "elevation": 557,
    "url": null,
    "time_zone": "America/Chicago",
    "city_code": "ASN",
    "country": "US",
    "city": "Talladega",
    "state": "Alabama",
    "county": "Talladega County",
    "type": "AP"
  },
  {
    "code": "ASQ",
    "icao": "KTMT",
    "name": "Austin",
    "latitude": 39.4664739,
    "longitude": -117.19708239162144,
    "elevation": 5734,
    "url": null,
    "time_zone": "America/Los_Angeles",
    "city_code": "ASQ",
    "country": "US",
    "city": null,
    "state": null,
    "county": null,
    "type": "AP"
  },
  {
    "code": "AST",
    "icao": "KAST",
    "name": "Astoria",
    "latitude": 46.15642245,
    "longitude": -123.8830099988317,
    "elevation": 16,
    "url": null,
    "time_zone": "America/Los_Angeles",
    "city_code": "AST",
    "country": "US",
    "city": "Warrenton",
    "state": "Oregon",
    "county": "Clatsop County",
    "type": "AP"
  },
  {
    "code": "ASX",
    "icao": "KASX",
    "name": "Ashland",
    "latitude": 46.55,
    "longitude": -90.916664,
    "elevation": 793,
    "url": null,
    "time_zone": "America/Chicago",
    "city_code": "ASX",
    "country": "US",
    "city": "Ashland",
    "state": "Wisconsin",
    "county": "Ashland County",
    "type": "AP"
  },
  {
    "code": "ASY",
    "icao": "KASY",
    "name": "Ashley",
    "latitude": 46.033333,
    "longitude": -99.36667,
    "elevation": 1984,
    "url": null,
    "time_zone": "America/Chicago",
    "city_code": "ASY",
    "country": "US",
    "city": "Ashley",
    "state": "North Dakota",
    "county": "McIntosh County",
    "type": "AP"
  },
  {
    "code": "ATE",
    "icao": "80F",
    "name": "Antlers",
    "latitude": 34.233334,
    "longitude": -95.61667,
    "elevation": 538,
    "url": null,
    "time_zone": "America/Chicago",
    "city_code": "ATE",
    "country": "US",
    "city": "Antlers",
    "state": "Oklahoma",
    "county": "Pushmataha County",
    "type": "AP"
  },
  {
    "code": "ATK",
    "icao": "PATQ",
    "name": "Atqasuk Edward Burnell Sr. Memorial Airport",
    "latitude": 70.5,
    "longitude": -157.33333,
    "elevation": 111,
    "url": null,
    "time_zone": "America/Anchorage",
    "city_code": "ATK",
    "country": "US",
    "city": null,
    "state": null,
    "county": null,
    "type": "AP"
  },
  {
    "code": "ATL",
    "icao": "KATL",
    "name": "Hartsfield-Jackson Atlanta International Airport",
    "latitude": 33.63779875,
    "longitude": -84.42927118585675,
    "elevation": 1049,
    "url": "http://www.atlanta-airport.com/",
    "time_zone": "America/New_York",
    "city_code": "ATL",
    "country": "US",
    "city": null,
    "state": null,
    "county": null,
    "type": "AP"
  },
  {
    "code": "ATO",
    "icao": "KUNI",
    "name": "Ohio University",
    "latitude": 39.333332,
    "longitude": -82.1,
    "elevation": 721,
    "url": null,
    "time_zone": "America/New_York",
    "city_code": "ATO",
    "country": "US",
    "city": "Athens",
    "state": "Ohio",
    "county": "Athens County",
    "type": "AP"
  },
  {
    "code": "ATS",
    "icao": "KATS",
    "name": "Artesia",
    "latitude": 32.8525152,
    "longitude": -104.46641082535339,
    "elevation": 3520,
    "url": null,
    "time_zone": "America/Denver",
    "city_code": "ATS",
    "country": "US",
    "city": "Artesia",
    "state": "New Mexico",
    "county": "Eddy County",
    "type": "AP"
  },
  {
    "code": "ATT",
    "icao": null,
    "name": "Atmautluak Airport",
    "latitude": 60.8631043,
    "longitude": -162.2734311,
    "elevation": 39,
    "url": null,
    "time_zone": "America/Nome",
    "city_code": "ATT",
    "country": "US",
    "city": null,
    "state": null,
    "county": null,
    "type": "AP"
  },
  {
    "code": "ATU",
    "icao": "PAAT",
    "name": "Casco Cove",
    "latitude": 52.825832,
    "longitude": 173.17278,
    "elevation": 36,
    "url": null,
    "time_zone": "America/Adak",
    "city_code": "ATU",
    "country": "US",
    "city": null,
    "state": null,
    "county": null,
    "type": "AP"
  },
  {
    "code": "ATW",
    "icao": "KATW",
    "name": "Outagamie County Regional Airport",
    "latitude": 44.25659495,
    "longitude": -88.52169598755702,
    "elevation": 859,
    "url": "http://atwairport.com/",
    "time_zone": "America/Chicago",
    "city_code": "ATW",
    "country": "US",
    "city": "Menasha",
    "state": "Wisconsin",
    "county": "Winnebago County",
    "type": "AP"
  },
  {
    "code": "ATY",
    "icao": "KATY",
    "name": "Watertown Airport",
    "latitude": 44.912617499999996,
    "longitude": -97.14845996679145,
    "elevation": 1722,
    "url": null,
    "time_zone": "America/Chicago",
    "city_code": "ATY",
    "country": "US",
    "city": "Watertown",
    "state": "South Dakota",
    "county": "Codington County",
    "type": "AP"
  },
  {
    "code": "AUG",
    "icao": "KAUG",
    "name": "Augusta Airport",
    "latitude": 44.318054,
    "longitude": -69.79667,
    "elevation": 314,
    "url": null,
    "time_zone": "America/New_York",
    "city_code": "AUG",
    "country": "US",
    "city": "Augusta",
    "state": "Maine",
    "county": "Kennebec County",
    "type": "AP"
  },
  {
    "code": "AUK",
    "icao": "PAUK",
    "name": "Alakanuk Airport",
    "latitude": 62.689167,
    "longitude": -164.61084,
    "elevation": 0,
    "url": null,
    "time_zone": "America/Nome",
    "city_code": "AUK",
    "country": "US",
    "city": null,
    "state": null,
    "county": null,
    "type": "AP"
  },
  {
    "code": "AUM",
    "icao": "KAUM",
    "name": "Austin",
    "latitude": 43.666668,
    "longitude": -92.98333,
    "elevation": 1236,
    "url": null,
    "time_zone": "America/Chicago",
    "city_code": "AUM",
    "country": "US",
    "city": "Austin",
    "state": "Minnesota",
    "county": "Mower County",
    "type": "AP"
  },
  {
    "code": "AUN",
    "icao": "KAUN",
    "name": "Auburn",
    "latitude": 38.9,
    "longitude": -121.066666,
    "elevation": 1338,
    "url": null,
    "time_zone": "America/Los_Angeles",
    "city_code": "AUN",
    "country": "US",
    "city": "Auburn",
    "state": "California",
    "county": "Placer County",
    "type": "AP"
  },
  {
    "code": "AUO",
    "icao": "KAUO",
    "name": "Auburn-Opelika",
    "latitude": 32.63333,
    "longitude": -85.5,
    "elevation": 636,
    "url": null,
    "time_zone": "America/Chicago",
    "city_code": "AUO",
    "country": "US",
    "city": "Auburn",
    "state": "Alabama",
    "county": "Lee County",
    "type": "AP"
  },
  {
    "code": "AUS",
    "icao": "KAUS",
    "name": "Austin-Bergstrom International Airport",
    "latitude": 30.19348925,
    "longitude": -97.66500963529677,
    "elevation": 505,
    "url": "http://www.ci.austin.tx.us/austinairport/",
    "time_zone": "America/Chicago",
    "city_code": "AUS",
    "country": "US",
    "city": "Hornsby Bend",
    "state": "Texas",
    "county": "Travis County",
    "type": "AP"
  },
  {
    "code": "AUW",
    "icao": "KAUW",
    "name": "Municipal",
    "latitude": 44.923332,
    "longitude": -89.623055,
    "elevation": 1184,
    "url": "http://www.ci.wausau.wi.us/Departments/Airport/GeneralInformation.aspx",
    "time_zone": "America/Chicago",
    "city_code": "AUW",
    "country": "US",
    "city": "Schofield",
    "state": "Wisconsin",
    "county": "Marathon County",
    "type": "AP"
  },
  {
    "code": "AUZ",
    "icao": "KARR",
    "name": "Municipal Airport",
    "latitude": 41.75,
    "longitude": -88.316666,
    "elevation": 702,
    "url": null,
    "time_zone": "America/Chicago",
    "city_code": "AUZ",
    "country": "US",
    "city": "Aurora",
    "state": "Illinois",
    "county": "Kane County",
    "type": "AP"
  },
  {
    "code": "AVL",
    "icao": "KAVL",
    "name": "Asheville Regional Airport",
    "latitude": 35.4364233,
    "longitude": -82.54088095049624,
    "elevation": 2119,
    "url": null,
    "time_zone": "America/New_York",
    "city_code": "AVL",
    "country": "US",
    "city": "Fletcher",
    "state": "North Carolina",
    "county": "Henderson County",
    "type": "AP"
  },
  {
    "code": "AVO",
    "icao": "KAVO",
    "name": "Municipal",
    "latitude": 27.6,
    "longitude": -81.51667,
    "elevation": 232,
    "url": null,
    "time_zone": "America/New_York",
    "city_code": "AVO",
    "country": "US",
    "city": "Avon Park",
    "state": "Florida",
    "county": "Highlands County",
    "type": "AP"
  },
  {
    "code": "AVP",
    "icao": "KAVP",
    "name": "Wilkes-Barre/Scranton International Airport",
    "latitude": 41.33709205,
    "longitude": -75.72257122928625,
    "elevation": 921,
    "url": "http://www.flyavp.com/",
    "time_zone": "America/New_York",
    "city_code": "AVP",
    "country": "US",
    "city": "Avoca",
    "state": "Pennsylvania",
    "county": "Luzerne County",
    "type": "AP"
  },
  {
    "code": "AVW",
    "icao": "KAVQ",
    "name": "Avra Valley",
    "latitude": 32.4113732,
    "longitude": -111.21748791631757,
    "elevation": 2004,
    "url": null,
    "time_zone": "America/Phoenix",
    "city_code": "TUS",
    "country": "US",
    "city": "Marana",
    "state": "Arizona",
    "county": "Pima County",
    "type": "AP"
  },
  {
    "code": "AVX",
    "icao": "KAVX",
    "name": "Avalon Bay",
    "latitude": 33.341667,
    "longitude": -118.31528,
    "elevation": 0,
    "url": "http://www.catalinaconservancy.org/index.php?s=visit&p=pilot_information",
    "time_zone": "America/Los_Angeles",
    "city_code": "AVX",
    "country": "US",
    "city": null,
    "state": null,
    "county": null,
    "type": "AP"
  },
  {
    "code": "AWM",
    "icao": "KAWM",
    "name": "Municipal",
    "latitude": 35.13333,
    "longitude": -90.183334,
    "elevation": 193,
    "url": null,
    "time_zone": "America/Chicago",
    "city_code": "AWM",
    "country": "US",
    "city": "West Memphis",
    "state": "Arkansas",
    "county": "Crittenden County",
    "type": "AP"
  },
  {
    "code": "AXB",
    "icao": "89NY",
    "name": "Alexandria Bay",
    "latitude": 44.2525,
    "longitude": -75.90139,
    "elevation": 423,
    "url": "http://www.maxsonairfield.com/",
    "time_zone": "America/New_York",
    "city_code": "AXB",
    "country": "US",
    "city": "Alexandria Bay",
    "state": "New York",
    "county": "Jefferson County",
    "type": "AP"
  },
  {
    "code": "AXG",
    "icao": "KAXA",
    "name": "Algona",
    "latitude": 43.0778426,
    "longitude": -94.2714143,
    "elevation": 1141,
    "url": null,
    "time_zone": "America/Chicago",
    "city_code": "AXG",
    "country": "US",
    "city": "Algona",
    "state": "Iowa",
    "county": "Kossuth County",
    "type": "AP"
  },
  {
    "code": "AXN",
    "icao": "KAXN",
    "name": "Alexandria",
    "latitude": 45.86722,
    "longitude": -95.394165,
    "elevation": 1423,
    "url": null,
    "time_zone": "America/Chicago",
    "city_code": "AXN",
    "country": "US",
    "city": "Alexandria",
    "state": "Minnesota",
    "county": "Douglas County",
    "type": "AP"
  },
  {
    "code": "AXS",
    "icao": "KAXS",
    "name": "Altus/Quartz Mountain Regional Airport",
    "latitude": 34.69881,
    "longitude": -99.33847,
    "elevation": 1420,
    "url": null,
    "time_zone": "America/Chicago",
    "city_code": "LTS",
    "country": "US",
    "city": null,
    "state": null,
    "county": null,
    "type": "AP"
  },
  {
    "code": "AXV",
    "icao": "KAXV",
    "name": "Neil Armstrong",
    "latitude": 40.566666,
    "longitude": -84.2,
    "elevation": 895,
    "url": null,
    "time_zone": "America/New_York",
    "city_code": "AXV",
    "country": "US",
    "city": "Wapakoneta",
    "state": "Ohio",
    "county": "Auglaize County",
    "type": "AP"
  },
  {
    "code": "AXX",
    "icao": "KAXX",
    "name": "Angel Fire",
    "latitude": 36.4202498,
    "longitude": -105.2910646,
    "elevation": 8362,
    "url": null,
    "time_zone": "America/Denver",
    "city_code": "AXX",
    "country": "US",
    "city": "Angel Fire",
    "state": "New Mexico",
    "county": "Colfax County",
    "type": "AP"
  },
  {
    "code": "AYE",
    "icao": null,
    "name": "AAF Heliport",
    "latitude": 42.55,
    "longitude": -71.6,
    "elevation": 269,
    "url": null,
    "time_zone": "America/New_York",
    "city_code": "AYE",
    "country": "US",
    "city": "Ayer",
    "state": "Massachusetts",
    "county": "Middlesex County",
    "type": "AP"
  },
  {
    "code": "AYS",
    "icao": "KAYS",
    "name": "Ware County",
    "latitude": 31.24847785,
    "longitude": -82.39377481016464,
    "elevation": 177,
    "url": null,
    "time_zone": "America/New_York",
    "city_code": "AYS",
    "country": "US",
    "city": "Deenwood",
    "state": "Georgia",
    "county": "Ware County",
    "type": "AP"
  },
  {
    "code": "AYZ",
    "icao": null,
    "name": "Zahns",
    "latitude": 40.666668,
    "longitude": -73.416664,
    "elevation": 26,
    "url": null,
    "time_zone": "America/New_York",
    "city_code": "AYZ",
    "country": "US",
    "city": "Amityville",
    "state": "New York",
    "county": "Suffolk County",
    "type": "AP"
  },
  {
    "code": "AZA",
    "icao": "KIWA",
    "name": "Phoenix-Mesa Gateway Airport",
    "latitude": 33.30591455,
    "longitude": -111.6526441150196,
    "elevation": 1309,
    "url": "http://www.flywga.org/",
    "time_zone": "America/Phoenix",
    "city_code": "PHX",
    "country": "US",
    "city": "Queen Creek",
    "state": "Arizona",
    "county": "Maricopa County",
    "type": "AP"
  },
  {
    "code": "AZO",
    "icao": "KAZO",
    "name": "Kalamazoo Battle Creek International Airport",
    "latitude": 42.2307865,
    "longitude": -85.5510419237961,
    "elevation": 803,
    "url": null,
    "time_zone": "America/Detroit",
    "city_code": "AZO",
    "country": "US",
    "city": "Portage",
    "state": "Michigan",
    "county": "Kalamazoo County",
    "type": "AP"
  },
  {
    "code": "BAB",
    "icao": "KBAB",
    "name": "Beale AFB",
    "latitude": 39.15,
    "longitude": -121.583336,
    "elevation": 85,
    "url": null,
    "time_zone": "America/Los_Angeles",
    "city_code": "MYV",
    "country": "US",
    "city": "Marysville",
    "state": "California",
    "county": "Yuba County",
    "type": "AP"
  },
  {
    "code": "BAD",
    "icao": "KBAD",
    "name": "Barksdale AFB",
    "latitude": 32.5,
    "longitude": -93.666664,
    "elevation": 170,
    "url": null,
    "time_zone": "America/Chicago",
    "city_code": "SHV",
    "country": "US",
    "city": "Bossier City",
    "state": "Louisiana",
    "county": "Bossier Parish",
    "type": "AP"
  },
  {
    "code": "BAF",
    "icao": "KBAF",
    "name": "Barnes",
    "latitude": 42.13333,
    "longitude": -72.75,
    "elevation": 206,
    "url": null,
    "time_zone": "America/New_York",
    "city_code": "BAF",
    "country": "US",
    "city": "Westfield",
    "state": "Massachusetts",
    "county": "Hampden County",
    "type": "AP"
  },
  {
    "code": "BAM",
    "icao": "KBAM",
    "name": "Lander County",
    "latitude": 40.63333,
    "longitude": -116.933334,
    "elevation": 4494,
    "url": "http://www.battlemountainairport.com/default.htm",
    "time_zone": "America/Los_Angeles",
    "city_code": "BAM",
    "country": "US",
    "city": "Battle Mountain",
    "state": "Nevada",
    "county": "Lander County",
    "type": "AP"
  },
  {
    "code": "BAR",
    "icao": "ZJQH",
    "name": "Baker AAF",
    "latitude": 55.333332,
    "longitude": -133.6,
    "elevation": 954,
    "url": null,
    "time_zone": "America/Sitka",
    "city_code": "BAR",
    "country": "US",
    "city": null,
    "state": null,
    "county": null,
    "type": "AP"
  },
  {
    "code": "BBB",
    "icao": "KBBB",
    "name": "Benson Municipal Airport",
    "latitude": 45.331944,
    "longitude": -95.650556,
    "elevation": 1026,
    "url": null,
    "time_zone": "America/Chicago",
    "city_code": "BBB",
    "country": "US",
    "city": "Benson",
    "state": "Minnesota",
    "county": "Swift County",
    "type": "AP"
  },
  {
    "code": "BBC",
    "icao": "KBYY",
    "name": "Bay City",
    "latitude": 28.983334,
    "longitude": -95.96667,
    "elevation": 72,
    "url": "http://www.flybaycity.com/",
    "time_zone": "America/Chicago",
    "city_code": "BBC",
    "country": "US",
    "city": "Bay City",
    "state": "Texas",
    "county": "Matagorda County",
    "type": "AP"
  },
  {
    "code": "BBD",
    "icao": "KBBD",
    "name": "Curtis Field",
    "latitude": 31.133333,
    "longitude": -99.333336,
    "elevation": 1686,
    "url": null,
    "time_zone": "America/Chicago",
    "city_code": "BBD",
    "country": "US",
    "city": "Brady",
    "state": "Texas",
    "county": "McCulloch County",
    "type": "AP"
  },
  {
    "code": "BBF",
    "icao": null,
    "name": "Burlington",
    "latitude": 42.5,
    "longitude": -71.183334,
    "elevation": 154,
    "url": null,
    "time_zone": "America/New_York",
    "city_code": "BBF",
    "country": "US",
    "city": "Burlington",
    "state": "Massachusetts",
    "county": "Middlesex County",
    "type": "AP"
  },
  {
    "code": "BBW",
    "icao": "KBBW",
    "name": "Broken Bow",
    "latitude": 41.4,
    "longitude": -99.63333,
    "elevation": 2463,
    "url": null,
    "time_zone": "America/Chicago",
    "city_code": "BBW",
    "country": "US",
    "city": "Broken Bow",
    "state": "Nebraska",
    "county": "Custer County",
    "type": "AP"
  },
  {
    "code": "BBX",
    "icao": "KLOM",
    "name": "Wings Field",
    "latitude": 40.136665,
    "longitude": -75.2675,
    "elevation": 301,
    "url": null,
    "time_zone": "America/New_York",
    "city_code": "BBX",
    "country": "US",
    "city": "Blue Bell",
    "state": "Pennsylvania",
    "county": "Montgomery County",
    "type": "AP"
  },
  {
    "code": "BCB",
    "icao": "KBCB",
    "name": "Virginia Tech",
    "latitude": 37.20921745,
    "longitude": -80.41201041579389,
    "elevation": 2076,
    "url": "http://www.vtbcb.com/index.php",
    "time_zone": "America/New_York",
    "city_code": "BCB",
    "country": "US",
    "city": "Blacksburg",
    "state": "Virginia",
    "county": "Montgomery County",
    "type": "AP"
  },
  {
    "code": "BCC",
    "icao": "Z48",
    "name": "Bear Creek",
    "latitude": 63.571667,
    "longitude": -156.144167,
    "elevation": 623,
    "url": null,
    "time_zone": "America/Anchorage",
    "city_code": "BCC",
    "country": "US",
    "city": "Red Lodge",
    "state": "Montana",
    "county": "Carbon County",
    "type": "AP"
  },
  {
    "code": "BCE",
    "icao": "KBCE",
    "name": "Bryce",
    "latitude": 37.707521650000004,
    "longitude": -112.15013994170272,
    "elevation": 7582,
    "url": "http://www.brycecanyonairport.com/",
    "time_zone": "America/Denver",
    "city_code": "BCE",
    "country": "US",
    "city": null,
    "state": null,
    "county": null,
    "type": "AP"
  },
  {
    "code": "BCJ",
    "icao": null,
    "name": "Baca Grande",
    "latitude": 39,
    "longitude": -106,
    "elevation": 9258,
    "url": null,
    "time_zone": "America/Denver",
    "city_code": "BCJ",
    "country": "US",
    "city": "Buena Vista",
    "state": "Colorado",
    "county": "Chaffee County",
    "type": "AP"
  },
  {
    "code": "BCS",
    "icao": "65LA",
    "name": "Southern Seaplane",
    "latitude": 29.966667,
    "longitude": -90,
    "elevation": 22,
    "url": "http://southernseaplane.com/cms/?page_id=460",
    "time_zone": "America/Chicago",
    "city_code": "BCS",
    "country": "US",
    "city": null,
    "state": null,
    "county": null,
    "type": "AP"
  },
  {
    "code": "BCT",
    "icao": "KBCT",
    "name": "Public",
    "latitude": 26.35,
    "longitude": -80.083336,
    "elevation": 52,
    "url": null,
    "time_zone": "America/New_York",
    "city_code": "BCT",
    "country": "US",
    "city": "Boca Raton",
    "state": "Florida",
    "county": "Palm Beach County",
    "type": "AP"
  },
  {
    "code": "BDE",
    "icao": "KBDE",
    "name": "Baudette",
    "latitude": 48.7232658,
    "longitude": -94.6044845,
    "elevation": 1056,
    "url": null,
    "time_zone": "America/Chicago",
    "city_code": "BDE",
    "country": "US",
    "city": null,
    "state": null,
    "county": null,
    "type": "AP"
  },
  {
    "code": "BDF",
    "icao": "3IS8",
    "name": "Rinkenberger",
    "latitude": 41.183334,
    "longitude": -89.65,
    "elevation": 787,
    "url": null,
    "time_zone": "America/Chicago",
    "city_code": "BDF",
    "country": "US",
    "city": "Wyoming",
    "state": "Illinois",
    "county": "Stark County",
    "type": "AP"
  },
  {
    "code": "BDG",
    "icao": "KBDG",
    "name": "Blanding",
    "latitude": 37.581466,
    "longitude": -109.480294,
    "elevation": 5816,
    "url": null,
    "time_zone": "America/Denver",
    "city_code": "BDG",
    "country": "US",
    "city": "Blanding",
    "state": "Utah",
    "county": "San Juan County",
    "type": "AP"
  },
  {
    "code": "BDL",
    "icao": "KBDL",
    "name": "Bradley International Airport",
    "latitude": 41.9405835,
    "longitude": -72.68501994264602,
    "elevation": 173,
    "url": "http://www.bradleyairport.com/",
    "time_zone": "America/New_York",
    "city_code": "BDL",
    "country": "US",
    "city": "Windsor Locks",
    "state": "Connecticut",
    "county": "Hartford County",
    "type": "AP"
  },
  {
    "code": "BDR",
    "icao": "KBDR",
    "name": "Igor I. Sikorsky Memorial",
    "latitude": 41.16271485,
    "longitude": -73.12617523031957,
    "elevation": 22,
    "url": null,
    "time_zone": "America/New_York",
    "city_code": "BDR",
    "country": "US",
    "city": null,
    "state": null,
    "county": null,
    "type": "AP"
  },
  {
    "code": "BDX",
    "icao": "00F",
    "name": "Broadus",
    "latitude": 45.466667,
    "longitude": -105.36667,
    "elevation": 3077,
    "url": null,
    "time_zone": "America/Denver",
    "city_code": "BDX",
    "country": "US",
    "city": "Broadus",
    "state": "Montana",
    "county": "Powder River County",
    "type": "AP"
  },
  {
    "code": "BDY",
    "icao": "S05",
    "name": "State",
    "latitude": 43.11667,
    "longitude": -124.416664,
    "elevation": 52,
    "url": null,
    "time_zone": "America/Los_Angeles",
    "city_code": "BDY",
    "country": "US",
    "city": "Bandon",
    "state": "Oregon",
    "county": "Coos County",
    "type": "AP"
  },
  {
    "code": "BEC",
    "icao": "KBEC",
    "name": "Beech",
    "latitude": 37.683334,
    "longitude": -97.333336,
    "elevation": 1295,
    "url": null,
    "time_zone": "America/Chicago",
    "city_code": "ICT",
    "country": "US",
    "city": null,
    "state": null,
    "county": null,
    "type": "AP"
  },
  {
    "code": "BED",
    "icao": "KBED",
    "name": "Hanscom Field",
    "latitude": 42.46795055,
    "longitude": -71.28436913584784,
    "elevation": 88,
    "url": "http://www.massport.com/hansc/",
    "time_zone": "America/New_York",
    "city_code": "BED",
    "country": "US",
    "city": "Bedford",
    "state": "Massachusetts",
    "county": "Middlesex County",
    "type": "AP"
  },
  {
    "code": "BEH",
    "icao": "KBEH",
    "name": "Ross Field",
    "latitude": 42.127777,
    "longitude": -86.42833,
    "elevation": 606,
    "url": "http://www.swmiairport.com/1201.html",
    "time_zone": "America/Detroit",
    "city_code": "BEH",
    "country": "US",
    "city": "Benton Heights",
    "state": "Michigan",
    "county": "Berrien County",
    "type": "AP"
  },
  {
    "code": "BET",
    "icao": "PABE",
    "name": "Bethel Airport",
    "latitude": 60.78043015,
    "longitude": -161.84026194740966,
    "elevation": 111,
    "url": null,
    "time_zone": "America/Anchorage",
    "city_code": "BET",
    "country": "US",
    "city": null,
    "state": null,
    "county": null,
    "type": "AP"
  },
  {
    "code": "BFB",
    "icao": null,
    "name": "Blue Fox Bay",
    "latitude": 58.183334,
    "longitude": -152.13333,
    "elevation": 262,
    "url": null,
    "time_zone": "America/Anchorage",
    "city_code": "BFB",
    "country": "US",
    "city": null,
    "state": null,
    "county": null,
    "type": "AP"
  },
  {
    "code": "BFD",
    "icao": "KBFD",
    "name": "Bradford Airport",
    "latitude": 41.802223,
    "longitude": -78.63944,
    "elevation": 2125,
    "url": null,
    "time_zone": "America/New_York",
    "city_code": "BFD",
    "country": "US",
    "city": "Bradford",
    "state": "Pennsylvania",
    "county": "McKean County",
    "type": "AP"
  },
  {
    "code": "BFF",
    "icao": "KBFF",
    "name": "Western Nebraska Regional Airport",
    "latitude": 41.87685875,
    "longitude": -103.59491845572903,
    "elevation": 3959,
    "url": null,
    "time_zone": "America/Denver",
    "city_code": "BFF",
    "country": "US",
    "city": "Terrytown",
    "state": "Nebraska",
    "county": "Scotts Bluff County",
    "type": "AP"
  },
  {
    "code": "BFG",
    "icao": "KU07",
    "name": "Bullfrog Basin",
    "latitude": 37.5458239,
    "longitude": -110.713199,
    "elevation": 4150,
    "url": null,
    "time_zone": "America/Denver",
    "city_code": "BFG",
    "country": "US",
    "city": null,
    "state": null,
    "county": null,
    "type": "AP"
  },
  {
    "code": "BFI",
    "icao": "KBFI",
    "name": "Boeing Field International Airport",
    "latitude": 47.5371,
    "longitude": -122.3037,
    "elevation": 36,
    "url": null,
    "time_zone": "America/Los_Angeles",
    "city_code": "SEA",
    "country": "US",
    "city": "Boulevard Park",
    "state": "Washington",
    "county": "King County",
    "type": "AP"
  },
  {
    "code": "BFK",
    "icao": "KBKF",
    "name": "Buffalo Municipal Airport",
    "latitude": 39.733334,
    "longitude": -104.86667,
    "elevation": 5390,
    "url": null,
    "time_zone": "America/Denver",
    "city_code": "DEN",
    "country": "US",
    "city": "Aurora",
    "state": "Colorado",
    "county": "Adams County",
    "type": "AP"
  },
  {
    "code": "BFL",
    "icao": "KBFL",
    "name": "Meadows Field Airport",
    "latitude": 35.4372678,
    "longitude": -119.05922366074273,
    "elevation": 479,
    "url": null,
    "time_zone": "America/Los_Angeles",
    "city_code": "BFL",
    "country": "US",
    "city": "Oildale",
    "state": "California",
    "county": "Kern County",
    "type": "AP"
  },
  {
    "code": "BFM",
    "icao": "KBFM",
    "name": "Mobile Downtown Airport",
    "latitude": 30.683332,
    "longitude": -88.23333,
    "elevation": 200,
    "url": null,
    "time_zone": "America/Chicago",
    "city_code": "MOB",
    "country": "US",
    "city": null,
    "state": null,
    "county": null,
    "type": "AP"
  },
  {
    "code": "BFP",
    "icao": "KBVI",
    "name": "Beaver Falls",
    "latitude": 40.766666,
    "longitude": -80.4,
    "elevation": 1187,
    "url": null,
    "time_zone": "America/New_York",
    "city_code": "BFP",
    "country": "US",
    "city": "West Mayfield",
    "state": "Pennsylvania",
    "county": "Beaver County",
    "type": "AP"
  },
  {
    "code": "BFR",
    "icao": "KBFR",
    "name": "Virgil I Grissom Municipalcipal",
    "latitude": 38.86667,
    "longitude": -86.48333,
    "elevation": 669,
    "url": null,
    "time_zone": "America/Indiana/Indianapolis",
    "city_code": "BFR",
    "country": "US",
    "city": "Bedford",
    "state": "Indiana",
    "county": "Lawrence County",
    "type": "AP"
  },
  {
    "code": "BFT",
    "icao": "KARW",
    "name": "County",
    "latitude": 32.41083,
    "longitude": -80.635,
    "elevation": 32,
    "url": null,
    "time_zone": "America/New_York",
    "city_code": "BFT",
    "country": "US",
    "city": "Beaufort",
    "state": "South Carolina",
    "county": "Beaufort County",
    "type": "AP"
  },
  {
    "code": "BGD",
    "icao": "KBGD",
    "name": "Borger",
    "latitude": 35.6887659,
    "longitude": -101.394019,
    "elevation": 3034,
    "url": "http://www.hutchinsoncountyairport.com/",
    "time_zone": "America/Chicago",
    "city_code": "BGD",
    "country": "US",
    "city": "Borger",
    "state": "Texas",
    "county": "Hutchinson County",
    "type": "AP"
  },
  {
    "code": "BGE",
    "icao": "KBGE",
    "name": "Decatur County",
    "latitude": 30.916668,
    "longitude": -84.583336,
    "elevation": 78,
    "url": "http://bainbridgega.com/chamber/airport.shtml",
    "time_zone": "America/New_York",
    "city_code": "BGE",
    "country": "US",
    "city": "Bainbridge",
    "state": "Georgia",
    "county": "Decatur County",
    "type": "AP"
  },
  {
    "code": "BGM",
    "icao": "KBGM",
    "name": "Greater Binghamton Airport",
    "latitude": 42.2106484,
    "longitude": -75.9815509339948,
    "elevation": 1587,
    "url": "http://binghamtonairport.com/",
    "time_zone": "America/New_York",
    "city_code": "BGM",
    "country": "US",
    "city": "Johnson City",
    "state": "New York",
    "county": "Broome County",
    "type": "AP"
  },
  {
    "code": "BGQ",
    "icao": "PAGQ",
    "name": "Big Lake",
    "latitude": 61.5352778,
    "longitude": -149.8119444,
    "elevation": 144,
    "url": null,
    "time_zone": "America/Anchorage",
    "city_code": "BGQ",
    "country": "US",
    "city": null,
    "state": "Alaska",
    "county": null,
    "type": "AP"
  },
  {
    "code": "BGR",
    "icao": "KBGR",
    "name": "Bangor International Airport",
    "latitude": 44.8072619,
    "longitude": -68.81941486105113,
    "elevation": 131,
    "url": "http://www.flybangor.com ",
    "time_zone": "America/New_York",
    "city_code": "BGR",
    "country": "US",
    "city": "Bangor",
    "state": "Maine",
    "county": "Penobscot County",
    "type": "AP"
  },
  {
    "code": "BGS",
    "icao": null,
    "name": "Webb AFB",
    "latitude": 32.385555,
    "longitude": -101.48333,
    "elevation": 2618,
    "url": null,
    "time_zone": "America/Chicago",
    "city_code": "HCA",
    "country": "US",
    "city": null,
    "state": null,
    "county": null,
    "type": "AP"
  },
  {
    "code": "BGT",
    "icao": "E51",
    "name": "Bagdad",
    "latitude": 34.5932537,
    "longitude": -113.1728287,
    "elevation": 4156,
    "url": null,
    "time_zone": "America/Phoenix",
    "city_code": "BGT",
    "country": "US",
    "city": "Bagdad",
    "state": "Arizona",
    "county": "Yavapai County",
    "type": "AP"
  },
  {
    "code": "BHB",
    "icao": "KBHB",
    "name": "Bar Harbor Airport",
    "latitude": 44.44889,
    "longitude": -68.361664,
    "elevation": 65,
    "url": null,
    "time_zone": "America/New_York",
    "city_code": "BHB",
    "country": "US",
    "city": "Trenton",
    "state": "Maine",
    "county": "Hancock County",
    "type": "AP"
  },
  {
    "code": "BHM",
    "icao": "KBHM",
    "name": "Birmingham-Shuttlesworth International Airport",
    "latitude": 33.5635078,
    "longitude": -86.75154126864663,
    "elevation": 603,
    "url": "http://www.flybirmingham.com/",
    "time_zone": "America/Chicago",
    "city_code": "BHM",
    "country": "US",
    "city": "Tarrant",
    "state": "Alabama",
    "county": "Jefferson County",
    "type": "AP"
  },
  {
    "code": "BID",
    "icao": "KBID",
    "name": "Block Island",
    "latitude": 41.168239549999996,
    "longitude": -71.5774515679899,
    "elevation": 95,
    "url": "http://www.blockislandri.net/blockislandairport.htm",
    "time_zone": "America/New_York",
    "city_code": "BID",
    "country": "US",
    "city": "Charlestown",
    "state": "Rhode Island",
    "county": "Washington County",
    "type": "AP"
  },
  {
    "code": "BIE",
    "icao": "KBIE",
    "name": "Beatrice",
    "latitude": 40.2996235,
    "longitude": -96.74932562315121,
    "elevation": 1312,
    "url": "http://beatriceairport.com/",
    "time_zone": "America/Chicago",
    "city_code": "BIE",
    "country": "US",
    "city": "Beatrice",
    "state": "Nebraska",
    "county": "Gage County",
    "type": "AP"
  },
  {
    "code": "BIF",
    "icao": "KBIF",
    "name": "Biggs AAF",
    "latitude": 31.75,
    "longitude": -106.48333,
    "elevation": 3733,
    "url": "https://www.bliss.army.mil/biggs/",
    "time_zone": "America/Denver",
    "city_code": "ELP",
    "country": "US",
    "city": "El Paso",
    "state": "Texas",
    "county": "El Paso County",
    "type": "AP"
  },
  {
    "code": "BIG",
    "icao": "PABI",
    "name": "Intermediate Field",
    "latitude": 64.06778,
    "longitude": -145.73277,
    "elevation": 1138,
    "url": null,
    "time_zone": "America/Anchorage",
    "city_code": "BIG",
    "country": "US",
    "city": null,
    "state": null,
    "county": null,
    "type": "AP"
  },
  {
    "code": "BIH",
    "icao": "KBIH",
    "name": "Bishop",
    "latitude": 37.373333,
    "longitude": -118.365,
    "elevation": 4087,
    "url": "http://www.inyocounty.us/Airport/index.html",
    "time_zone": "America/Los_Angeles",
    "city_code": "BIH",
    "country": "US",
    "city": "Bishop",
    "state": "California",
    "county": "Inyo County",
    "type": "AP"
  },
  {
    "code": "BIL",
    "icao": "KBIL",
    "name": "Billings Logan International Airport",
    "latitude": 45.809234849999996,
    "longitude": -108.54767517885944,
    "elevation": 3569,
    "url": null,
    "time_zone": "America/Denver",
    "city_code": "BIL",
    "country": "US",
    "city": "Billings",
    "state": "Montana",
    "county": "Yellowstone County",
    "type": "AP"
  },
  {
    "code": "BIS",
    "icao": "KBIS",
    "name": "Bismarck Airport",
    "latitude": 46.7732585,
    "longitude": -100.74716366621541,
    "elevation": 1607,
    "url": "http://bismarckairport.com/",
    "time_zone": "America/Chicago",
    "city_code": "BIS",
    "country": "US",
    "city": "Bismarck",
    "state": "North Dakota",
    "county": "Burleigh County",
    "type": "AP"
  },
  {
    "code": "BIX",
    "icao": "KBIX",
    "name": "Keesler AFB",
    "latitude": 30.4094294,
    "longitude": -88.91886496725886,
    "elevation": 39,
    "url": null,
    "time_zone": "America/Chicago",
    "city_code": "BIX",
    "country": "US",
    "city": "Biloxi",
    "state": "Mississippi",
    "county": "Harrison County",
    "type": "AP"
  },
  {
    "code": "BJC",
    "icao": "KBJC",
    "name": "Jeffco",
    "latitude": 39.9121533,
    "longitude": -105.1071572,
    "elevation": 5603,
    "url": null,
    "time_zone": "America/Denver",
    "city_code": "BJC",
    "country": "US",
    "city": "Broomfield",
    "state": "Colorado",
    "county": "Broomfield County",
    "type": "AP"
  },
  {
    "code": "BJI",
    "icao": "KBJI",
    "name": "Bemidji Airport",
    "latitude": 47.5101068,
    "longitude": -94.92982434625608,
    "elevation": 1407,
    "url": "http://www.bemidjiairport.org/",
    "time_zone": "America/Chicago",
    "city_code": "BJI",
    "country": "US",
    "city": "Bemidji",
    "state": "Minnesota",
    "county": "Beltrami County",
    "type": "AP"
  },
  {
    "code": "BJJ",
    "icao": "KBJJ",
    "name": "Wayne County",
    "latitude": 40.8,
    "longitude": -81.933334,
    "elevation": 935,
    "url": "http://www.woosterwaynecountyairport.com/",
    "time_zone": "America/New_York",
    "city_code": "BJJ",
    "country": "US",
    "city": "Wooster",
    "state": "Ohio",
    "county": "Wayne County",
    "type": "AP"
  },
  {
    "code": "BKC",
    "icao": "PABL",
    "name": "Buckland Airport",
    "latitude": 65.9815616,
    "longitude": -161.1492319,
    "elevation": 26,
    "url": null,
    "time_zone": "America/Anchorage",
    "city_code": "BKC",
    "country": "US",
    "city": null,
    "state": null,
    "county": null,
    "type": "AP"
  },
  {
    "code": "BKD",
    "icao": "KBKD",
    "name": "Stephens County",
    "latitude": 32.7183179,
    "longitude": -98.8921334,
    "elevation": 1279,
    "url": null,
    "time_zone": "America/Chicago",
    "city_code": "BKD",
    "country": "US",
    "city": "Breckenridge",
    "state": "Texas",
    "county": "Stephens County",
    "type": "AP"
  },
  {
    "code": "BKE",
    "icao": "KBKE",
    "name": "Baker",
    "latitude": 44.838333,
    "longitude": -117.81,
    "elevation": 3353,
    "url": "http://www.bakeraircraft.com/",
    "time_zone": "America/Los_Angeles",
    "city_code": "BKE",
    "country": "US",
    "city": "Baker City",
    "state": "Oregon",
    "county": "Baker County",
    "type": "AP"
  },
  {
    "code": "BKF",
    "icao": "5Z9",
    "name": "Lake Brooks SPB",
    "latitude": 58.6,
    "longitude": -156.23334,
    "elevation": 29,
    "url": null,
    "time_zone": "America/Anchorage",
    "city_code": "BKF",
    "country": "US",
    "city": null,
    "state": null,
    "county": null,
    "type": "AP"
  },
  {
    "code": "BKG",
    "icao": "KBBG",
    "name": "Branson",
    "latitude": 36.527800049999996,
    "longitude": -93.19781657947979,
    "elevation": 1328,
    "url": "http://flybranson.com/",
    "time_zone": "America/Chicago",
    "city_code": "BKG",
    "country": "US",
    "city": "Hollister",
    "state": "Missouri",
    "county": "Taney County",
    "type": "AP"
  },
  {
    "code": "BKH",
    "icao": "PHBK",
    "name": "Barking Sands PMRF",
    "latitude": 21.966667,
    "longitude": -159.71666,
    "elevation": 0,
    "url": null,
    "time_zone": "Pacific/Honolulu",
    "city_code": "BKH",
    "country": "US",
    "city": null,
    "state": null,
    "county": null,
    "type": "AP"
  },
  {
    "code": "BKL",
    "icao": "KBKL",
    "name": "Burke Lakefront Airport",
    "latitude": 41.518816900000004,
    "longitude": -81.68113241152425,
    "elevation": 580,
    "url": "http://www.clevelandairport.com/site/470/default.aspx",
    "time_zone": "America/New_York",
    "city_code": "CLE",
    "country": "US",
    "city": "Cleveland",
    "state": "Ohio",
    "county": "Cuyahoga County",
    "type": "AP"
  },
  {
    "code": "BKT",
    "icao": "KBKT",
    "name": "Blackstone AAF",
    "latitude": 37.066666,
    "longitude": -78,
    "elevation": 433,
    "url": null,
    "time_zone": "America/New_York",
    "city_code": "BKT",
    "country": "US",
    "city": "Blackstone",
    "state": "Virginia",
    "county": "Nottoway County",
    "type": "AP"
  },
  {
    "code": "BKW",
    "icao": "KBKW",
    "name": "Beckley Airport",
    "latitude": 37.7945921,
    "longitude": -81.12226647165667,
    "elevation": 2440,
    "url": null,
    "time_zone": "America/New_York",
    "city_code": "BKW",
    "country": "US",
    "city": "Daniels",
    "state": "West Virginia",
    "county": "Raleigh County",
    "type": "AP"
  },
  {
    "code": "BKX",
    "icao": "KBKX",
    "name": "Brookings",
    "latitude": 44.303333,
    "longitude": -96.81111,
    "elevation": 1601,
    "url": null,
    "time_zone": "America/Chicago",
    "city_code": "BKX",
    "country": "US",
    "city": "Brookings",
    "state": "South Dakota",
    "county": "Brookings County",
    "type": "AP"
  },
  {
    "code": "BLD",
    "icao": "KBVU",
    "name": "Boulder City",
    "latitude": 35.983334,
    "longitude": -114.833336,
    "elevation": 2434,
    "url": null,
    "time_zone": "America/Los_Angeles",
    "city_code": "LAS",
    "country": "US",
    "city": "Boulder City",
    "state": "Nevada",
    "county": "Clark County",
    "type": "AP"
  },
  {
    "code": "BLF",
    "icao": "KBLF",
    "name": "Princeton",
    "latitude": 37.295834,
    "longitude": -81.20805,
    "elevation": 2877,
    "url": null,
    "time_zone": "America/New_York",
    "city_code": "BLF",
    "country": "US",
    "city": "Bluefield",
    "state": "West Virginia",
    "county": "Mercer County",
    "type": "AP"
  },
  {
    "code": "BLH",
    "icao": "KBLH",
    "name": "Blythe",
    "latitude": 33.6206368,
    "longitude": -114.71910408120428,
    "elevation": 387,
    "url": null,
    "time_zone": "America/Los_Angeles",
    "city_code": "BLH",
    "country": "US",
    "city": "Mesa Verde",
    "state": "California",
    "county": "Riverside County",
    "type": "AP"
  },
  {
    "code": "BLI",
    "icao": "KBLI",
    "name": "Bellingham International Airport",
    "latitude": 48.79368955,
    "longitude": -122.53595690761102,
    "elevation": 118,
    "url": null,
    "time_zone": "America/Los_Angeles",
    "city_code": "BLI",
    "country": "US",
    "city": "Marietta-Alderwood",
    "state": "Washington",
    "county": "Whatcom County",
    "type": "AP"
  },
  {
    "code": "BLM",
    "icao": "KBLM",
    "name": "Monmouth Executive Airport",
    "latitude": 40.183334,
    "longitude": -74.01667,
    "elevation": 16,
    "url": null,
    "time_zone": "America/New_York",
    "city_code": "BLM",
    "country": "US",
    "city": "Belmar",
    "state": "New Jersey",
    "county": "Monmouth County",
    "type": "AP"
  },
  {
    "code": "BLU",
    "icao": "KBLU",
    "name": "Blue Canyon",
    "latitude": 39.2743038,
    "longitude": -120.7095717681865,
    "elevation": 5236,
    "url": null,
    "time_zone": "America/Los_Angeles",
    "city_code": "BLU",
    "country": "US",
    "city": "Foresthill",
    "state": "California",
    "county": "Placer County",
    "type": "AP"
  },
  {
    "code": "BLV",
    "icao": "KBLV",
    "name": "Belleville",
    "latitude": 38.65178,
    "longitude": -89.85183,
    "elevation": 456,
    "url": null,
    "time_zone": "America/Chicago",
    "city_code": "BLV",
    "country": "US",
    "city": "Lebanon",
    "state": "Illinois",
    "county": "Saint Clair County",
    "type": "AP"
  },
  {
    "code": "BLW",
    "icao": "HCMN",
    "name": "Bellows Field",
    "latitude": 21.333332,
    "longitude": -157.7,
    "elevation": 45,
    "url": null,
    "time_zone": "Pacific/Honolulu",
    "city_code": "BLW",
    "country": "US",
    "city": "Waimanalo Beach",
    "state": "Hawaii",
    "county": "Honolulu County",
    "type": "AP"
  },
  {
    "code": "BMC",
    "icao": "KBMC",
    "name": "Brigham City",
    "latitude": 41.5347533,
    "longitude": -112.0604949,
    "elevation": 4189,
    "url": "http://brighamcity.utah.gov/airport.htm",
    "time_zone": "America/Denver",
    "city_code": "BMC",
    "country": "US",
    "city": "Brigham City",
    "state": "Utah",
    "county": "Box Elder County",
    "type": "AP"
  },
  {
    "code": "BMG",
    "icao": "KBMG",
    "name": "Bloomington",
    "latitude": 39.14,
    "longitude": -86.61472,
    "elevation": 784,
    "url": null,
    "time_zone": "America/Indiana/Indianapolis",
    "city_code": "BMG",
    "country": "US",
    "city": "Bloomington",
    "state": "Indiana",
    "county": "Monroe County",
    "type": "AP"
  },
  {
    "code": "BMI",
    "icao": "KBMI",
    "name": "Central Illinois Regional Airport",
    "latitude": 40.4733557,
    "longitude": -88.91480264613926,
    "elevation": 921,
    "url": null,
    "time_zone": "America/Chicago",
    "city_code": "BMI",
    "country": "US",
    "city": "Bloomington",
    "state": "Illinois",
    "county": "McLean County",
    "type": "AP"
  },
  {
    "code": "BML",
    "icao": "KBML",
    "name": "Berlin Municipal Airport",
    "latitude": 44.57479855,
    "longitude": -71.17547494910397,
    "elevation": 1089,
    "url": null,
    "time_zone": "America/New_York",
    "city_code": "BML",
    "country": "US",
    "city": null,
    "state": null,
    "county": null,
    "type": "AP"
  },
  {
    "code": "BMT",
    "icao": "KBMT",
    "name": "Beaumont Municipalcipal",
    "latitude": 30.083332,
    "longitude": -94.1,
    "elevation": 36,
    "url": "https://beaumonttexas.gov/beaumont-municipal-airport/",
    "time_zone": "America/Chicago",
    "city_code": "BPT",
    "country": "US",
    "city": "Beaumont",
    "state": "Texas",
    "county": "Jefferson County",
    "type": "AP"
  },
  {
    "code": "BMX",
    "icao": "PABM",
    "name": "Big Mountain",
    "latitude": 59.3622374,
    "longitude": -155.2515943,
    "elevation": 646,
    "url": null,
    "time_zone": "America/Anchorage",
    "city_code": "BMX",
    "country": "US",
    "city": null,
    "state": null,
    "county": null,
    "type": "AP"
  },
  {
    "code": "BNA",
    "icao": "KBNA",
    "name": "Nashville International Airport",
    "latitude": 36.11958985,
    "longitude": -86.68308703291842,
    "elevation": 583,
    "url": "http://www.flynashville.com/",
    "time_zone": "America/Chicago",
    "city_code": "BNA",
    "country": "US",
    "city": "Nashville",
    "state": "Tennessee",
    "county": "Davidson County",
    "type": "AP"
  },
  {
    "code": "BNF",
    "icao": null,
    "name": "Warm Spring Bay SPB",
    "latitude": 57,
    "longitude": -135,
    "elevation": 4032,
    "url": null,
    "time_zone": "America/Sitka",
    "city_code": "BNF",
    "country": "US",
    "city": null,
    "state": null,
    "county": null,
    "type": "AP"
  },
  {
    "code": "BNG",
    "icao": "KBNG",
    "name": "Banning",
    "latitude": 33.9231279,
    "longitude": -116.85052999055571,
    "elevation": 2152,
    "url": "http://www.ci.banning.ca.us/index.aspx?NID=23",
    "time_zone": "America/Los_Angeles",
    "city_code": "BNG",
    "country": "US",
    "city": "Banning",
    "state": "California",
    "county": "Riverside County",
    "type": "AP"
  },
  {
    "code": "BNH",
    "icao": "MA87",
    "name": "Barnes",
    "latitude": 41.766666,
    "longitude": -72.683334,
    "elevation": 52,
    "url": null,
    "time_zone": "America/New_York",
    "city_code": "HFD",
    "country": "US",
    "city": null,
    "state": null,
    "county": null,
    "type": "AP"
  },
  {
    "code": "BNL",
    "icao": "KBNL",
    "name": "Barnwell Regional",
    "latitude": 33.2604761,
    "longitude": -81.383034,
    "elevation": 226,
    "url": "http://www.barnwellregionalairport.com/Home_Page.php",
    "time_zone": "America/New_York",
    "city_code": "BNL",
    "country": "US",
    "city": "Barnwell",
    "state": "South Carolina",
    "county": "Barnwell County",
    "type": "AP"
  },
  {
    "code": "BNO",
    "icao": "KBNO",
    "name": "Burns",
    "latitude": 43.5914,
    "longitude": -118.9554,
    "elevation": 4143,
    "url": "http://www.ci.burns.or.us/airport.html",
    "time_zone": "America/Los_Angeles",
    "city_code": "BNO",
    "country": "US",
    "city": "Burns",
    "state": "Oregon",
    "county": "Harney County",
    "type": "AP"
  },
  {
    "code": "BNW",
    "icao": "KBNW",
    "name": "Boone",
    "latitude": 42.066666,
    "longitude": -93.88333,
    "elevation": 1158,
    "url": null,
    "time_zone": "America/Chicago",
    "city_code": "BNW",
    "country": "US",
    "city": "Boone",
    "state": "Iowa",
    "county": "Boone County",
    "type": "AP"
  },
  {
    "code": "BOF",
    "icao": null,
    "name": "Bolling AFB",
    "latitude": 38.9,
    "longitude": -77.03333,
    "elevation": 108,
    "url": null,
    "time_zone": "America/New_York",
    "city_code": "WAS",
    "country": "US",
    "city": null,
    "state": null,
    "county": null,
    "type": "AP"
  },
  {
    "code": "BOI",
    "icao": "KBOI",
    "name": "Boise Air Terminal (Gowen Field)",
    "latitude": 43.569263,
    "longitude": -116.22193,
    "elevation": 2860,
    "url": "http://www.cityofboise.org/departments/airport/",
    "time_zone": "America/Boise",
    "city_code": "BOI",
    "country": "US",
    "city": "Boise",
    "state": "Idaho",
    "county": "Ada County",
    "type": "AP"
  },
  {
    "code": "BOK",
    "icao": "KBOK",
    "name": "Brookings State",
    "latitude": 42.05,
    "longitude": -124.28333,
    "elevation": 98,
    "url": null,
    "time_zone": "America/Los_Angeles",
    "city_code": "BOK",
    "country": "US",
    "city": "Brookings",
    "state": "Oregon",
    "county": "Curry County",
    "type": "AP"
  },
  {
    "code": "BOS",
    "icao": "KBOS",
    "name": "Logan International Airport",
    "latitude": 42.3629737,
    "longitude": -71.01350667543224,
    "elevation": 29,
    "url": "http://www.massport.com/logan/",
    "time_zone": "America/New_York",
    "city_code": "BOS",
    "country": "US",
    "city": "Chelsea",
    "state": "Massachusetts",
    "county": "Suffolk County",
    "type": "AP"
  },
  {
    "code": "BOW",
    "icao": "KBOW",
    "name": "Bartow",
    "latitude": 27.9,
    "longitude": -81.833336,
    "elevation": 72,
    "url": "http://www.bartow-airport.com/",
    "time_zone": "America/New_York",
    "city_code": "BOW",
    "country": "US",
    "city": "Bartow",
    "state": "Florida",
    "county": "Polk County",
    "type": "AP"
  },
  {
    "code": "BPA",
    "icao": null,
    "name": "Grumman",
    "latitude": 40.733334,
    "longitude": -73.48333,
    "elevation": 111,
    "url": null,
    "time_zone": "America/New_York",
    "city_code": "BPA",
    "country": "US",
    "city": "Bethpage",
    "state": "New York",
    "county": "Nassau County",
    "type": "AP"
  },
  {
    "code": "BPI",
    "icao": "KBPI",
    "name": "Big Piney-marbleton",
    "latitude": 42.533333,
    "longitude": -110.11667,
    "elevation": 6824,
    "url": null,
    "time_zone": "America/Denver",
    "city_code": "BPI",
    "country": "US",
    "city": "Marbleton",
    "state": "Wyoming",
    "county": "Sublette County",
    "type": "AP"
  },
  {
    "code": "BPT",
    "icao": "KBPT",
    "name": "Jefferson County Airport",
    "latitude": 29.950832,
    "longitude": -94.02,
    "elevation": 22,
    "url": null,
    "time_zone": "America/Chicago",
    "city_code": "BPT",
    "country": "US",
    "city": "Nederland",
    "state": "Texas",
    "county": "Jefferson County",
    "type": "AP"
  },
  {
    "code": "BQK",
    "icao": "KBQK",
    "name": "Glynco Jetport",
    "latitude": 31.166668,
    "longitude": -81.48333,
    "elevation": 36,
    "url": null,
    "time_zone": "America/New_York",
    "city_code": "SSI",
    "country": "US",
    "city": null,
    "state": null,
    "county": null,
    "type": "AP"
  },
  {
    "code": "BQV",
    "icao": "BQV",
    "name": "Bartlett SPB",
    "latitude": 58.416668,
    "longitude": -135.73334,
    "elevation": 16,
    "url": null,
    "time_zone": "America/Juneau",
    "city_code": "GST",
    "country": "US",
    "city": null,
    "state": null,
    "county": null,
    "type": "AP"
  },
  {
    "code": "BRD",
    "icao": "KBRD",
    "name": "Crow Wing County Airport",
    "latitude": 46.40507465,
    "longitude": -94.12827992568421,
    "elevation": 1233,
    "url": "http://brainerdairport.com/",
    "time_zone": "America/Chicago",
    "city_code": "BRD",
    "country": "US",
    "city": "Brainerd",
    "state": "Minnesota",
    "county": "Crow Wing County",
    "type": "AP"
  },
  {
    "code": "BRG",
    "icao": null,
    "name": "Municipal",
    "latitude": 37.11667,
    "longitude": -82.833336,
    "elevation": 1220,
    "url": null,
    "time_zone": "America/New_York",
    "city_code": "BRG",
    "country": "US",
    "city": "Whitesburg",
    "state": "Kentucky",
    "county": "Letcher County",
    "type": "AP"
  },
  {
    "code": "BRL",
    "icao": "KBRL",
    "name": "Burlington Airport",
    "latitude": 40.78611,
    "longitude": -91.12334,
    "elevation": 702,
    "url": null,
    "time_zone": "America/Chicago",
    "city_code": "BRL",
    "country": "US",
    "city": "Burlington",
    "state": "Iowa",
    "county": "Des Moines County",
    "type": "AP"
  },
  {
    "code": "BRO",
    "icao": "KBRO",
    "name": "South Padre Island International Airport",
    "latitude": 25.90889,
    "longitude": -97.42333,
    "elevation": 36,
    "url": null,
    "time_zone": "America/Chicago",
    "city_code": "BRO",
    "country": "US",
    "city": "South Point",
    "state": "Texas",
    "county": "Cameron County",
    "type": "AP"
  },
  {
    "code": "BRW",
    "icao": "PABR",
    "name": "Wiley Post-Will Rogers Memorial Airport",
    "latitude": 71.28620995,
    "longitude": -156.77500248341514,
    "elevation": 22,
    "url": null,
    "time_zone": "America/Anchorage",
    "city_code": "BRW",
    "country": "US",
    "city": null,
    "state": null,
    "county": null,
    "type": "AP"
  },
  {
    "code": "BRY",
    "icao": "KBRY",
    "name": "Samuels Field",
    "latitude": 37.81677845,
    "longitude": -85.49825864015378,
    "elevation": 639,
    "url": "http://www.cityofbardstown.org/dept-airport.html",
    "time_zone": "America/New_York",
    "city_code": "BRY",
    "country": "US",
    "city": "Bardstown",
    "state": "Kentucky",
    "county": "Nelson County",
    "type": "AP"
  },
  {
    "code": "BSF",
    "icao": "PHSF",
    "name": "Bradshaw AAF",
    "latitude": 21.383333,
    "longitude": -157.75,
    "elevation": 118,
    "url": null,
    "time_zone": "Pacific/Honolulu",
    "city_code": "BSF",
    "country": "US",
    "city": "Kailua",
    "state": "Hawaii",
    "county": "Honolulu County",
    "type": "AP"
  },
  {
    "code": "BSI",
    "icao": "RPLE",
    "name": "Blairsville",
    "latitude": 40.45,
    "longitude": -79.28333,
    "elevation": 1023,
    "url": null,
    "time_zone": "America/New_York",
    "city_code": "BSI",
    "country": "US",
    "city": "Blairsville",
    "state": "Pennsylvania",
    "county": "Indiana County",
    "type": "AP"
  },
  {
    "code": "BSQ",
    "icao": "P04",
    "name": "Bisbee Municipal Airport",
    "latitude": 31.3639903,
    "longitude": -109.883128,
    "elevation": 4737,
    "url": "http://www.discoverbisbee.com/about_air.htm",
    "time_zone": "America/Phoenix",
    "city_code": "BSQ",
    "country": "US",
    "city": "Naco",
    "state": "Arizona",
    "county": "Cochise County",
    "type": "AP"
  },
  {
    "code": "BSW",
    "icao": "AK97",
    "name": "Boswell Bay",
    "latitude": 60.4223364,
    "longitude": -146.1445823,
    "elevation": 72,
    "url": null,
    "time_zone": "America/Anchorage",
    "city_code": "BSW",
    "country": "US",
    "city": null,
    "state": null,
    "county": null,
    "type": "AP"
  },
  {
    "code": "BSZ",
    "icao": null,
    "name": "Bartletts",
    "latitude": 58.233612,
    "longitude": -157.35028,
    "elevation": 26,
    "url": null,
    "time_zone": "America/Anchorage",
    "city_code": "BSZ",
    "country": "US",
    "city": null,
    "state": null,
    "county": null,
    "type": "AP"
  },
  {
    "code": "BTF",
    "icao": "KBTF",
    "name": "Salt Lake Skypark",
    "latitude": 40.88333,
    "longitude": -111.88333,
    "elevation": 4393,
    "url": null,
    "time_zone": "America/Denver",
    "city_code": "BTF",
    "country": "US",
    "city": "Bountiful",
    "state": "Utah",
    "county": "Davis County",
    "type": "AP"
  },
  {
    "code": "BTI",
    "icao": "PABA",
    "name": "Barter Island Airport",
    "latitude": 70.1339763,
    "longitude": -143.58252540563527,
    "elevation": 22,
    "url": null,
    "time_zone": "America/Anchorage",
    "city_code": "BTI",
    "country": "US",
    "city": null,
    "state": null,
    "county": null,
    "type": "AP"
  },
  {
    "code": "BTL",
    "icao": "KBTL",
    "name": "WK Kellogg Regional",
    "latitude": 42.37278,
    "longitude": -85.26481,
    "elevation": 902,
    "url": "http://www.battlecreekmi.gov/City_Government/Departments/W_K__Kellogg_Airport.htm",
    "time_zone": "America/Detroit",
    "city_code": "BTL",
    "country": "US",
    "city": "Level Park-Oak Park",
    "state": "Michigan",
    "county": "Calhoun County",
    "type": "AP"
  },
  {
    "code": "BTM",
    "icao": "KBTM",
    "name": "Butte Airport",
    "latitude": 45.95111,
    "longitude": -112.49389,
    "elevation": 5475,
    "url": null,
    "time_zone": "America/Denver",
    "city_code": "BTM",
    "country": "US",
    "city": "Butte",
    "state": "Montana",
    "county": "Silver Bow County",
    "type": "AP"
  },
  {
    "code": "BTN",
    "icao": "KBBP",
    "name": "Bennettsville",
    "latitude": 34.61667,
    "longitude": -79.683334,
    "elevation": 150,
    "url": null,
    "time_zone": "America/New_York",
    "city_code": "BTN",
    "country": "US",
    "city": "Bennettsville",
    "state": "South Carolina",
    "county": "Marlboro County",
    "type": "AP"
  },
  {
    "code": "BTP",
    "icao": "KBTP",
    "name": "Butler County - Kenny Scholter Field",
    "latitude": 40.85,
    "longitude": -79.916664,
    "elevation": 1118,
    "url": "http://butlercountyairport.org/",
    "time_zone": "America/New_York",
    "city_code": "BTP",
    "country": "US",
    "city": "Homeacre-Lyndora",
    "state": "Pennsylvania",
    "county": "Butler County",
    "type": "AP"
  },
  {
    "code": "BTR",
    "icao": "KBTR",
    "name": "Baton Rouge Metropolitan Airport",
    "latitude": 30.5319743,
    "longitude": -91.15037753510408,
    "elevation": 82,
    "url": null,
    "time_zone": "America/Chicago",
    "city_code": "BTR",
    "country": "US",
    "city": "Brownsfield",
    "state": "Louisiana",
    "county": "East Baton Rouge Parish",
    "type": "AP"
  },
  {
    "code": "BTT",
    "icao": "PABT",
    "name": "Bettles",
    "latitude": 66.9157348,
    "longitude": -151.5282119,
    "elevation": 656,
    "url": null,
    "time_zone": "America/Anchorage",
    "city_code": "BTT",
    "country": "US",
    "city": null,
    "state": null,
    "county": null,
    "type": "AP"
  },
  {
    "code": "BTV",
    "icao": "KBTV",
    "name": "Burlington International Airport",
    "latitude": 44.472896500000004,
    "longitude": -73.15146310750751,
    "elevation": 305,
    "url": "http://www.vermontairports.com/btv.html",
    "time_zone": "America/New_York",
    "city_code": "BTV",
    "country": "US",
    "city": "South Burlington",
    "state": "Vermont",
    "county": "Chittenden County",
    "type": "AP"
  },
  {
    "code": "BTY",
    "icao": "KBTY",
    "name": "Beatty",
    "latitude": 36.9,
    "longitude": -116.76667,
    "elevation": 3366,
    "url": null,
    "time_zone": "America/Los_Angeles",
    "city_code": "BTY",
    "country": "US",
    "city": null,
    "state": null,
    "county": null,
    "type": "AP"
  },
  {
    "code": "BUB",
    "icao": "KBUB",
    "name": "Municipal",
    "latitude": 41.783333,
    "longitude": -99.13333,
    "elevation": 2171,
    "url": null,
    "time_zone": "America/Chicago",
    "city_code": "BUB",
    "country": "US",
    "city": "Burwell",
    "state": "Nebraska",
    "county": "Garfield County",
    "type": "AP"
  },
  {
    "code": "BUF",
    "icao": "KBUF",
    "name": "Buffalo Niagara International Airport",
    "latitude": 42.9402016,
    "longitude": -78.73075229745353,
    "elevation": 698,
    "url": "http://www.buffaloairport.com",
    "time_zone": "America/New_York",
    "city_code": "BUF",
    "country": "US",
    "city": "Williamsville",
    "state": "New York",
    "county": "Erie County",
    "type": "AP"
  },
  {
    "code": "BUM",
    "icao": "KBUM",
    "name": "Butler",
    "latitude": 38.266666,
    "longitude": -94.333336,
    "elevation": 830,
    "url": null,
    "time_zone": "America/Chicago",
    "city_code": "BUM",
    "country": "US",
    "city": "Butler",
    "state": "Missouri",
    "county": "Bates County",
    "type": "AP"
  },
  {
    "code": "BUR",
    "icao": "KBUR",
    "name": "Bob Hope Airport",
    "latitude": 34.2031703,
    "longitude": -118.35917241746948,
    "elevation": 682,
    "url": "http://www.burbankairport.com/",
    "time_zone": "America/Los_Angeles",
    "city_code": "BUR",
    "country": "US",
    "city": "North Hollywood",
    "state": "California",
    "county": "Los Angeles County",
    "type": "AP"
  },
  {
    "code": "BVD",
    "icao": null,
    "name": "Sea Port",
    "latitude": 53.733334,
    "longitude": -166.31667,
    "elevation": 0,
    "url": null,
    "time_zone": "America/Nome",
    "city_code": "BVD",
    "country": "US",
    "city": null,
    "state": null,
    "county": null,
    "type": "AP"
  },
  {
    "code": "BVO",
    "icao": "KBVO",
    "name": "Bartlesville",
    "latitude": 36.7671135,
    "longitude": -96.00918689480022,
    "elevation": 685,
    "url": null,
    "time_zone": "America/Chicago",
    "city_code": "BVO",
    "country": "US",
    "city": "Bartlesville",
    "state": "Oklahoma",
    "county": "Washington County",
    "type": "AP"
  },
  {
    "code": "BVU",
    "icao": "PABG",
    "name": "Beluga",
    "latitude": 61.1731772,
    "longitude": -151.048254,
    "elevation": 49,
    "url": null,
    "time_zone": "America/Anchorage",
    "city_code": "BVU",
    "country": "US",
    "city": null,
    "state": null,
    "county": null,
    "type": "AP"
  },
  {
    "code": "BVX",
    "icao": "KBVX",
    "name": "Municipal",
    "latitude": 35.766666,
    "longitude": -91.65,
    "elevation": 246,
    "url": null,
    "time_zone": "America/Chicago",
    "city_code": "BVX",
    "country": "US",
    "city": "Batesville",
    "state": "Arkansas",
    "county": "Independence County",
    "type": "AP"
  },
  {
    "code": "BVY",
    "icao": "KBVY",
    "name": "Beverly Municipal Airport",
    "latitude": 42.55,
    "longitude": -70.88333,
    "elevation": 49,
    "url": "http://www.beverlyairport.com/",
    "time_zone": "America/New_York",
    "city_code": "BVY",
    "country": "US",
    "city": "Beverly",
    "state": "Massachusetts",
    "county": "Essex County",
    "type": "AP"
  },
  {
    "code": "BWC",
    "icao": "KBWC",
    "name": "Brawley",
    "latitude": 32.990829649999995,
    "longitude": -115.51392903678291,
    "elevation": -144,
    "url": null,
    "time_zone": "America/Los_Angeles",
    "city_code": "BWC",
    "country": "US",
    "city": "Brawley",
    "state": "California",
    "county": "Imperial County",
    "type": "AP"
  },
  {
    "code": "BWD",
    "icao": "KBWD",
    "name": "Brownwood",
    "latitude": 31.7932137,
    "longitude": -98.956078,
    "elevation": 1377,
    "url": null,
    "time_zone": "America/Chicago",
    "city_code": "BWD",
    "country": "US",
    "city": "Early",
    "state": "Texas",
    "county": "Brown County",
    "type": "AP"
  },
  {
    "code": "BWG",
    "icao": "KBWG",
    "name": "Warren County",
    "latitude": 36.962223,
    "longitude": -86.42222,
    "elevation": 511,
    "url": null,
    "time_zone": "America/Chicago",
    "city_code": "BWG",
    "country": "US",
    "city": "Bowling Green",
    "state": "Kentucky",
    "county": "Warren County",
    "type": "AP"
  },
  {
    "code": "BWI",
    "icao": "KBWI",
    "name": "Baltimore/Wash International Thurgood Marshall Airport",
    "latitude": 39.179527,
    "longitude": -76.66894,
    "elevation": 170,
    "url": "https://www.bwiairport.com/",
    "time_zone": "America/New_York",
    "city_code": "BWI",
    "country": "US",
    "city": "Ferndale",
    "state": "Maryland",
    "county": "Anne Arundel County",
    "type": "AP"
  },
  {
    "code": "BWL",
    "icao": "6OK6",
    "name": "Blackwell",
    "latitude": 36.7958654,
    "longitude": -97.3172658,
    "elevation": 1053,
    "url": null,
    "time_zone": "America/Chicago",
    "city_code": "BWL",
    "country": "US",
    "city": "Blackwell",
    "state": "Oklahoma",
    "county": "Kay County",
    "type": "AP"
  },
  {
    "code": "BWM",
    "icao": "KBWW",
    "name": "Bowman",
    "latitude": 46.183334,
    "longitude": -103.4,
    "elevation": 2969,
    "url": "http://www.bowmannd.com/county/departments/airport-authority/",
    "time_zone": "America/Boise",
    "city_code": "BWM",
    "country": "US",
    "city": "Bowman",
    "state": "North Dakota",
    "county": "Bowman County",
    "type": "AP"
  },